[{"code":"AYGA","name":"GKA","city":"GOROKA","airport":"GOROKA","country":"PAPUA NEW GUINEA","latitude":-6.081666666666666,"longitude":145.39166666666665},{"code":"AYMD","name":"MAG","city":"MADANG","airport":"MADANG","country":"PAPUA NEW GUINEA","latitude":-5.206944444444445,"longitude":145.78861111111112},{"code":"AYMH","name":"HGU","city":"MOUNT HAGEN","airport":"MOUNT HAGEN","country":"PAPUA NEW GUINEA","latitude":-5.826111111111111,"longitude":144.29611111111112},{"code":"AYNZ","name":"LAE","city":"NADZAB","airport":"NADZAB","country":"PAPUA NEW GUINEA","latitude":-6.569722222222222,"longitude":146.72611111111112},{"code":"AYPY","name":"POM","city":"PORT MORESBY JACKSONS INTERNATIONAL","airport":"PORT MORESBY","country":"PAPUA NEW GUINEA","latitude":-9.443333333333333,"longitude":147.22},{"code":"AYWK","name":"WWK","city":"WEWAK INTERNATIONAL","airport":"WEWAK","country":"PAPUA NEW GUINEA","latitude":-3.5836111111111113,"longitude":143.66916666666665},{"code":"BGBW","name":"UAK","city":"NARSARSUAQ","airport":"NARSSARSSUAQ","country":"GREENLAND","latitude":61.16111111111111,"longitude":-45.427499999999995},{"code":"BGGH","name":"GOH","city":"NUUK","airport":"GODTHAAB","country":"GREENLAND","latitude":64.19083333333333,"longitude":-51.67805555555555},{"code":"BGJN","name":"JAV","city":"JACOBSHAVN","airport":"JAKOBSHAVN","country":"GREENLAND","latitude":69.23333333333333,"longitude":-51.06666666666667},{"code":"BGKK","name":"KUS","city":"KULUSUK","airport":"KULUSUK","country":"GREENLAND","latitude":65.58333333333333,"longitude":-37.15},{"code":"BGSF","name":"SFJ","city":"KANGERLUSSUAQ SONDRE STROMFJORD","airport":"SONDRESTROM","country":"GREENLAND","latitude":67.01694444444445,"longitude":-50.689166666666665},{"code":"BGTL","name":"THU","city":"THULE AIR BASE","airport":"THULE","country":"GREENLAND","latitude":76.53111111111112,"longitude":-68.70305555555557},{"code":"BIAR","name":"AEY","city":"AKUREYRI","airport":"AKUREYRI","country":"ICELAND","latitude":65.65972222222223,"longitude":-18.072499999999998},{"code":"BIEG","name":"EGS","city":"EGILSSTADIR","airport":"EGILSSTADIR","country":"ICELAND","latitude":65.28333333333333,"longitude":-14.401388888888889},{"code":"BIHN","name":"HFN","city":"HORNAFJORDUR","airport":"HOFN","country":"ICELAND","latitude":64.29555555555555,"longitude":-15.227222222222222},{"code":"BIHU","name":"HZK","city":"HUSAVIK","airport":"HUSAVIK","country":"ICELAND","latitude":65.95222222222222,"longitude":-17.425833333333333},{"code":"BIIS","name":"IFJ","city":"ISAFJORDUR","airport":"ISAFJORDUR","country":"ICELAND","latitude":66.05805555555555,"longitude":-23.135277777777777},{"code":"BIKF","name":"KEF","city":"KEFLAVIK NAS","airport":"KEFLAVIK","country":"ICELAND","latitude":63.985,"longitude":-22.605555555555558},{"code":"BIKP","name":"OPA","city":"KOPASKER","airport":"KOPASKER","country":"ICELAND","latitude":66.31361111111111,"longitude":-16.461111111111112},{"code":"BIPA","name":"PFJ","city":"PATREKSFJORDUR","airport":"PATREKSFJORDUR","country":"ICELAND","latitude":65.55583333333333,"longitude":-23.965},{"code":"BIRK","name":"RKV","city":"REYKJAVIK","airport":"REYKJAVIK","country":"ICELAND","latitude":64.13,"longitude":-21.940555555555555},{"code":"BISI","name":"SIJ","city":"SIGLUFJORDHUR","airport":"SIGLUFJORDUR","country":"ICELAND","latitude":66.13333333333334,"longitude":-18.916666666666668},{"code":"BIVM","name":"VEY","city":"VESTMANNAEYJAR","airport":"VESTMANNAEYJAR","country":"ICELAND","latitude":63.424166666666665,"longitude":-20.27861111111111},{"code":"CYAM","name":"YAM","city":"SAULT STE MARIE","airport":"SAULT SAINTE MARIE","country":"CANADA","latitude":46.485,"longitude":-84.50944444444444},{"code":"CYAV","name":"YAV","city":"WINNIPEG ST ANDREWS","airport":"WINNIPEG","country":"CANADA","latitude":50.05638888888888,"longitude":-97.0325},{"code":"CYAW","name":"YAW","city":"SHEARWATER","airport":"HALIFAX","country":"CANADA","latitude":44.63972222222222,"longitude":-63.49944444444444},{"code":"CYAY","name":"YAY","city":"ST ANTHONY","airport":"ST. ANTHONY","country":"CANADA","latitude":51.391666666666666,"longitude":-56.08444444444444},{"code":"CYAZ","name":"YAZ","city":"TOFINO","airport":"TOFINO","country":"CANADA","latitude":49.08222222222223,"longitude":-125.7725},{"code":"CYBB","name":"YBB","city":"KUGAARUK","airport":"PELLY BAY","country":"CANADA","latitude":68.53444444444445,"longitude":-89.80805555555555},{"code":"CYBC","name":"YBC","city":"BAIE COMEAU","airport":"BAIE COMEAU","country":"CANADA","latitude":49.132222222222225,"longitude":-68.20722222222223},{"code":"CYBG","name":"YBG","city":"BAGOTVILLE","airport":"BAGOTVILLE","country":"CANADA","latitude":48.330555555555556,"longitude":-70.99638888888889},{"code":"CYBK","name":"YBK","city":"BAKER LAKE","airport":"BAKER LAKE","country":"CANADA","latitude":64.29888888888888,"longitude":-96.07777777777777},{"code":"CYBL","name":"YBL","city":"CAMPBELL RIVER","airport":"CAMPBELL RIVER","country":"CANADA","latitude":49.950833333333335,"longitude":-125.27083333333333},{"code":"CYBR","name":"YBR","city":"BRANDON MUNI","airport":"BRANDON","country":"CANADA","latitude":49.91,"longitude":-99.95194444444445},{"code":"CYCB","name":"YCB","city":"CAMBRIDGE BAY","airport":"CAMBRIDGE BAY","country":"CANADA","latitude":69.10805555555555,"longitude":-105.13833333333334},{"code":"CYCD","name":"YCD","city":"NANAIMO","airport":"NANAIMO","country":"CANADA","latitude":49.05222222222222,"longitude":-123.86999999999999},{"code":"CYCG","name":"YCG","city":"CASTLEGAR","airport":"CASTLEGAR","country":"CANADA","latitude":49.296388888888885,"longitude":-117.6325},{"code":"CYCH","name":"YCH","city":"MIRAMICHI","airport":"CHATHAM","country":"CANADA","latitude":47.007777777777775,"longitude":-65.44916666666667},{"code":"CYCL","name":"YCL","city":"CHARLO","airport":"CHARLO","country":"CANADA","latitude":47.99055555555556,"longitude":-66.33138888888888},{"code":"CYCO","name":"YCO","city":"KUGLUKTUK","airport":"COPPERMINE","country":"CANADA","latitude":67.81666666666666,"longitude":-115.1438888888889},{"code":"CYCT","name":"YCT","city":"CORONATION","airport":"CORONATION","country":"CANADA","latitude":52.075,"longitude":-111.44527777777778},{"code":"CYCW","name":"YCW","city":"CHILLIWACK","airport":"CHILLIWACK","country":"CANADA","latitude":49.15277777777778,"longitude":-121.9388888888889},{"code":"CYCY","name":"YCY","city":"CLYDE RIVER","airport":"CLYDE RIVER","country":"CANADA","latitude":70.48611111111111,"longitude":-68.51666666666667},{"code":"CYCZ","name":"YZS","city":"FAIRMONT HOT SPRINGS","airport":"CORAL HARBOUR","country":"CANADA","latitude":50.331944444444446,"longitude":-115.8736111111111},{"code":"CYDA","name":"YDA","city":"DAWSON","airport":"DAWSON","country":"CANADA","latitude":64.04305555555555,"longitude":-139.1277777777778},{"code":"CYDB","name":"YDB","city":"BURWASH","airport":"BURWASH","country":"CANADA","latitude":61.37111111111111,"longitude":-139.04055555555556},{"code":"CYDC","name":"YDC","city":"PRINCETON","airport":"PRINCETON","country":"CANADA","latitude":49.4675,"longitude":-120.51194444444444},{"code":"CYDF","name":"YDF","city":"DEER LAKE","airport":"DEER LAKE","country":"CANADA","latitude":49.21083333333333,"longitude":-57.39138888888889},{"code":"CYDL","name":"YDL","city":"DEASE LAKE","airport":"DEASE LAKE","country":"CANADA","latitude":58.42222222222222,"longitude":-130.03222222222223},{"code":"CYDN","name":"YDN","city":"DAUPHIN BARKER","airport":"DAUPHIN","country":"CANADA","latitude":51.100833333333334,"longitude":-100.0525},{"code":"CYDQ","name":"YDQ","city":"DAWSON CREEK","airport":"DAWSON CREEK","country":"CANADA","latitude":55.74166666666667,"longitude":-120.18194444444445},{"code":"CYED","name":"YED","city":"EDMONTON NAMAO","airport":"EDMONTON","country":"CANADA","latitude":53.666666666666664,"longitude":-113.46666666666667},{"code":"CYEG","name":"YEG","city":"EDMONTON INTERNATIONAL","airport":"EDMONTON","country":"CANADA","latitude":53.30972222222222,"longitude":-113.57972222222222},{"code":"CYEK","name":"YEK","city":"ARVIAT","airport":"ESKIMO POINT","country":"CANADA","latitude":61.094166666666666,"longitude":-94.07083333333333},{"code":"CYEN","name":"YEN","city":"ESTEVAN","airport":"ESTEVAN","country":"CANADA","latitude":49.21027777777778,"longitude":-102.96583333333334},{"code":"CYET","name":"YET","city":"EDSON","airport":"EDSON","country":"CANADA","latitude":53.57888888888889,"longitude":-116.465},{"code":"CYEU","name":"YEU","city":"EUREKA","airport":"EUREKA","country":"CANADA","latitude":79.99472222222222,"longitude":-85.81333333333333},{"code":"CYEV","name":"YEV","city":"INUVIK MIKE ZUBKO","airport":"INUVIK","country":"CANADA","latitude":68.30416666666666,"longitude":-133.48277777777778},{"code":"CYFB","name":"YFB","city":"IQALUIT","airport":"IQALUIT","country":"CANADA","latitude":63.756388888888885,"longitude":-68.55583333333333},{"code":"CYFC","name":"YFC","city":"FREDERICTON","airport":"FREDERICTON","country":"CANADA","latitude":45.86944444444445,"longitude":-66.53166666666667},{"code":"CYFO","name":"YFO","city":"FLIN FLON","airport":"FLIN FLON","country":"CANADA","latitude":54.67805555555555,"longitude":-101.68166666666667},{"code":"CYFR","name":"YFR","city":"FORT RESOLUTION","airport":"FORT RESOLUTION","country":"CANADA","latitude":61.18083333333333,"longitude":-113.68972222222223},{"code":"CYFS","name":"YFS","city":"FORT SIMPSON","airport":"FORT SIMPSON","country":"CANADA","latitude":61.76027777777778,"longitude":-121.23666666666666},{"code":"CYGK","name":"YGK","city":"KINGSTON","airport":"KINGSTON","country":"CANADA","latitude":44.22527777777778,"longitude":-76.59694444444445},{"code":"CYGL","name":"YGL","city":"LA GRANDE RIVIERE","airport":"LA GRANDE RIVIERE","country":"CANADA","latitude":53.625277777777775,"longitude":-77.70416666666667},{"code":"CYGP","name":"YGP","city":"GASPE","airport":"GASPE","country":"CANADA","latitude":48.775277777777774,"longitude":-64.4786111111111},{"code":"CYGQ","name":"YGQ","city":"GERALDTON GREENSTONE REGIONAL","airport":"GERALDTON","country":"CANADA","latitude":49.77833333333333,"longitude":-86.93944444444445},{"code":"CYGR","name":"YGR","city":"ILES DE LA MADELEINE","airport":"ILES DE LA MADELEINE","country":"CANADA","latitude":47.42472222222222,"longitude":-61.778055555555554},{"code":"CYGW","name":"YGW","city":"KUUJJUARAPIK","airport":"KUUJJUARARAPIK","country":"CANADA","latitude":55.28333333333333,"longitude":-77.76666666666667},{"code":"CYGX","name":"YGX","city":"GILLAM","airport":"GILLAM","country":"CANADA","latitude":56.35,"longitude":-94.7},{"code":"CYHB","name":"YHB","city":"HUDSON BAY","airport":"HUDSON BAY","country":"CANADA","latitude":52.81666666666667,"longitude":-102.31138888888889},{"code":"CYHD","name":"YHD","city":"DRYDEN RGNL","airport":"DRYDEN","country":"CANADA","latitude":49.83166666666667,"longitude":-92.74416666666667},{"code":"CYHI","name":"YHI","city":"HOLMAN","airport":"HOLMAN ISLAND","country":"CANADA","latitude":70.76305555555555,"longitude":-117.80583333333333},{"code":"CYHK","name":"YHK","city":"GJOA HAVEN","airport":"GJOA HAVEN","country":"CANADA","latitude":68.63555555555556,"longitude":-95.84972222222221},{"code":"CYHM","name":"YHM","city":"HAMILTON","airport":"HAMILTON","country":"CANADA","latitude":43.17305555555555,"longitude":-79.935},{"code":"CYHU","name":"YHU","city":"ST HUBERT","airport":"MONTREAL","country":"CANADA","latitude":45.5175,"longitude":-73.41694444444445},{"code":"CYHY","name":"YHY","city":"HAY RIVER","airport":"HAY RIVER","country":"CANADA","latitude":60.83972222222222,"longitude":-115.78277777777778},{"code":"CYHZ","name":"YHZ","city":"HALIFAX INTERNATIONAL","airport":"HALIFAX","country":"CANADA","latitude":44.880833333333335,"longitude":-63.50861111111111},{"code":"CYIB","name":"YIB","city":"ATIKOKAN MUNI","airport":"ATIKOKAN","country":"CANADA","latitude":48.77388888888889,"longitude":-91.63861111111112},{"code":"CYIO","name":"YIO","city":"POND INLET","airport":"POND INLET","country":"CANADA","latitude":72.68333333333334,"longitude":-77.96666666666667},{"code":"CYJN","name":"YJN","city":"ST JEAN","airport":"ST. JEAN","country":"CANADA","latitude":45.294444444444444,"longitude":-73.28111111111112},{"code":"CYJT","name":"YJT","city":"STEPHENVILLE","airport":"STEPHENVILLE","country":"CANADA","latitude":48.54416666666666,"longitude":-58.55},{"code":"CYKA","name":"YKA","city":"KAMLOOPS","airport":"KAMLOOPS","country":"CANADA","latitude":50.702222222222225,"longitude":-120.44194444444445},{"code":"CYKF","name":"YKF","city":"WATERLOO RGNL","airport":"WATERLOO","country":"CANADA","latitude":43.45888888888889,"longitude":-80.38444444444445},{"code":"CYKL","name":"YKL","city":"SCHEFFERVILLE","airport":"SCHEFFERVILLE","country":"CANADA","latitude":54.805,"longitude":-66.80527777777777},{"code":"CYKY","name":"YKY","city":"KINDERSLEY","airport":"KINDERSLEY","country":"CANADA","latitude":51.5175,"longitude":-109.18083333333334},{"code":"CYKZ","name":"YKZ","city":"BUTTONVILLE MUNI","airport":"TORONTO","country":"CANADA","latitude":43.86222222222222,"longitude":-79.36999999999999},{"code":"CYLD","name":"YLD","city":"CHAPLEAU","airport":"CHAPLEAU","country":"CANADA","latitude":47.82,"longitude":-83.34638888888888},{"code":"CYLJ","name":"YLJ","city":"MEADOW LAKE","airport":"MEADOW LAKE","country":"CANADA","latitude":54.125277777777775,"longitude":-108.52277777777778},{"code":"CYLL","name":"YLL","city":"LLOYDMINSTER","airport":"LLOYDMINSTER","country":"CANADA","latitude":53.30916666666666,"longitude":-110.07249999999999},{"code":"CYLT","name":"YLT","city":"ALERT","airport":"ALERT","country":"CANADA","latitude":82.51777777777778,"longitude":-62.28055555555555},{"code":"CYLW","name":"YLW","city":"KELOWNA","airport":"KELOWNA","country":"CANADA","latitude":49.95611111111111,"longitude":-119.37777777777777},{"code":"CYMA","name":"YMA","city":"MAYO","airport":"MAYO","country":"CANADA","latitude":63.61666666666667,"longitude":-135.86666666666667},{"code":"CYMJ","name":"YMJ","city":"MOOSE JAW","airport":"MOOSE JAW","country":"CANADA","latitude":50.33027777777778,"longitude":-105.55916666666667},{"code":"CYMM","name":"YMM","city":"FORT MCMURRAY","airport":"FORT MCMURRAY","country":"CANADA","latitude":56.65333333333333,"longitude":-111.22194444444445},{"code":"CYMO","name":"YMO","city":"MOOSONEE","airport":"MOOSONEE","country":"CANADA","latitude":51.29111111111111,"longitude":-80.60777777777777},{"code":"CYMW","name":"YMW","city":"MANIWAKI","airport":"MANIWAKI","country":"CANADA","latitude":46.27444444444444,"longitude":-75.99},{"code":"CYMX","name":"YMX","city":"MONTREAL INTERNATIONAL MIRABEL","airport":"MONTREAL","country":"CANADA","latitude":45.67972222222222,"longitude":-74.03861111111111},{"code":"CYNA","name":"YNA","city":"NATASHQUAN","airport":"NATASHQUAN","country":"CANADA","latitude":50.189722222222215,"longitude":-61.78916666666667},{"code":"CYND","name":"YND","city":"GATINEAU","airport":"GATINEAU","country":"CANADA","latitude":45.521388888888886,"longitude":-75.56416666666667},{"code":"CYNM","name":"YNM","city":"MATAGAMI","airport":"MATAGAMI","country":"CANADA","latitude":49.76166666666666,"longitude":-77.80277777777778},{"code":"CYOC","name":"YOC","city":"OLD CROW","airport":"OLD CROW","country":"CANADA","latitude":67.57055555555556,"longitude":-139.83916666666667},{"code":"CYOD","name":"YOD","city":"COLD LAKE","airport":"COLD LAKE","country":"CANADA","latitude":54.405,"longitude":-110.27944444444444},{"code":"CYOJ","name":"YOJ","city":"HIGH LEVEL","airport":"HIGH LEVEL","country":"CANADA","latitude":58.62138888888889,"longitude":-117.16472222222222},{"code":"CYOW","name":"YOW","city":"OTTAWA MACDONALD CARTIER INTERNATIONAL","airport":"OTTAWA","country":"CANADA","latitude":45.322500000000005,"longitude":-75.66916666666667},{"code":"CYPA","name":"YPA","city":"PRINCE ALBERT GLASS FIELD","airport":"PRINCE ALBERT","country":"CANADA","latitude":53.21416666666667,"longitude":-105.67277777777778},{"code":"CYPE","name":"YPE","city":"PEACE RIVER","airport":"PEACE RIVER","country":"CANADA","latitude":56.22694444444445,"longitude":-117.44722222222222},{"code":"CYPG","name":"YPG","city":"SOUTHPORT","airport":"PORTAGE-LA-PRAIRIE","country":"CANADA","latitude":49.90277777777778,"longitude":-98.27472222222222},{"code":"CYPL","name":"YPL","city":"PICKLE LAKE","airport":"PICKLE LAKE","country":"CANADA","latitude":51.44638888888888,"longitude":-90.21416666666667},{"code":"CYPN","name":"YPN","city":"PORT MENIER","airport":"PORT MENIER","country":"CANADA","latitude":49.83638888888889,"longitude":-64.28861111111111},{"code":"CYPQ","name":"YPQ","city":"PETERBOROUGH","airport":"PETERBOROUGH","country":"CANADA","latitude":44.230000000000004,"longitude":-78.36333333333333},{"code":"CYPR","name":"YPR","city":"PRINCE RUPERT","airport":"PRINCE PUPERT","country":"CANADA","latitude":54.28611111111111,"longitude":-130.44472222222223},{"code":"CYPY","name":"YPY","city":"FORT CHIPEWYAN","airport":"FORT CHIPEWYAN","country":"CANADA","latitude":58.76722222222222,"longitude":-111.11722222222221},{"code":"CYQA","name":"YQA","city":"MUSKOKA","airport":"MUSKOKA","country":"CANADA","latitude":44.974722222222226,"longitude":-79.30333333333333},{"code":"CYQB","name":"YQB","city":"QUEBEC JEAN LESAGE INTERNATIONAL","airport":"QUEBEC","country":"CANADA","latitude":46.788333333333334,"longitude":-71.39750000000001},{"code":"CYQF","name":"YQF","city":"RED DEER REGIONAL","airport":"RED DEER INDUSTRIAL","country":"CANADA","latitude":52.17861111111111,"longitude":-113.89305555555556},{"code":"CYQG","name":"YQG","city":"WINDSOR","airport":"WINDSOR","country":"CANADA","latitude":42.275555555555556,"longitude":-82.95555555555556},{"code":"CYQH","name":"YQH","city":"WATSON LAKE","airport":"WATSON LAKE","country":"CANADA","latitude":60.117777777777775,"longitude":-128.82194444444445},{"code":"CYQK","name":"YQK","city":"KENORA","airport":"KENORA","country":"CANADA","latitude":49.788333333333334,"longitude":-94.36305555555555},{"code":"CYQL","name":"YQL","city":"LETHBRIDGE","airport":"LETHBRIDGE","country":"CANADA","latitude":49.63027777777778,"longitude":-112.79972222222221},{"code":"CYQM","name":"YQM","city":"GREATER MONCTON INTERNATIONAL","airport":"MONCTON","country":"CANADA","latitude":46.11222222222222,"longitude":-64.67861111111111},{"code":"CYQQ","name":"YQQ","city":"COMOX","airport":"COMOX","country":"CANADA","latitude":49.71083333333333,"longitude":-124.88666666666667},{"code":"CYQR","name":"YQR","city":"REGINA INTERNATIONAL","airport":"REGINA","country":"CANADA","latitude":50.43194444444444,"longitude":-104.66583333333334},{"code":"CYQT","name":"YQT","city":"THUNDER BAY","airport":"THUNDER BAY","country":"CANADA","latitude":48.371944444444445,"longitude":-89.32388888888889},{"code":"CYQU","name":"YQU","city":"GRANDE PRAIRIE","airport":"GRANDE PRAIRIE","country":"CANADA","latitude":55.17972222222222,"longitude":-118.885},{"code":"CYQV","name":"YQV","city":"YORKTON MUNI","airport":"YORKTON","country":"CANADA","latitude":51.264722222222225,"longitude":-102.46166666666667},{"code":"CYQW","name":"YQW","city":"NORTH BATTLEFORD","airport":"NORTH BATTLEFORD","country":"CANADA","latitude":52.76916666666666,"longitude":-108.24361111111111},{"code":"CYQX","name":"YQX","city":"GANDER INTERNATIONAL","airport":"GANDER","country":"CANADA","latitude":48.93694444444444,"longitude":-54.56805555555556},{"code":"CYQY","name":"YQY","city":"SYDNEY","airport":"SYDNEY","country":"CANADA","latitude":46.16138888888889,"longitude":-60.047777777777775},{"code":"CYQZ","name":"YQZ","city":"QUESNEL","airport":"QUESNEL","country":"CANADA","latitude":53.02611111111111,"longitude":-122.51},{"code":"CYRB","name":"YRB","city":"RESOLUTE BAY","airport":"RESOLUTE","country":"CANADA","latitude":74.71694444444445,"longitude":-94.96944444444445},{"code":"CYRI","name":"YRI","city":"RIVIERE DU LOUP","airport":"RIVIERE DU LOUP","country":"CANADA","latitude":47.76444444444444,"longitude":-69.58472222222221},{"code":"CYRJ","name":"YRJ","city":"ROBERVAL","airport":"ROBERVAL","country":"CANADA","latitude":48.519999999999996,"longitude":-72.26555555555555},{"code":"CYRM","name":"YRM","city":"ROCKY MOUNTAIN HOUSE","airport":"ROCKY MOUNTAIN HOUSE","country":"CANADA","latitude":52.42972222222222,"longitude":-114.90416666666667},{"code":"CYRT","name":"YRT","city":"RANKIN INLET","airport":"RANKIN INLET","country":"CANADA","latitude":62.811388888888885,"longitude":-92.11583333333333},{"code":"CYSB","name":"YSB","city":"SUDBURY","airport":"SUDBURY","country":"CANADA","latitude":46.625,"longitude":-80.79888888888888},{"code":"CYSC","name":"YSC","city":"SHERBROOKE","airport":"SHERBROOKE","country":"CANADA","latitude":45.43805555555555,"longitude":-71.69055555555556},{"code":"CYSJ","name":"YSJ","city":"SAINT JOHN","airport":"ST. JOHN","country":"CANADA","latitude":45.316111111111105,"longitude":-65.89027777777778},{"code":"CYSM","name":"YSM","city":"FORT SMITH","airport":"FORT SMITH","country":"CANADA","latitude":60.02222222222222,"longitude":-111.96027777777778},{"code":"CYSR","name":"YSR","city":"NANISIVIK","airport":"NANISIVIK","country":"CANADA","latitude":72.98222222222222,"longitude":-84.61361111111111},{"code":"CYSU","name":"YSU","city":"SUMMERSIDE","airport":"SUMMERSIDE","country":"CANADA","latitude":46.44277777777778,"longitude":-63.83111111111111},{"code":"CYSY","name":"YSY","city":"SACHS HARBOUR","airport":"SACHS HARBOUR","country":"CANADA","latitude":71.99388888888889,"longitude":-125.2425},{"code":"CYTE","name":"YTE","city":"CAPE DORSET","airport":"CAPE DORSET","country":"CANADA","latitude":64.23,"longitude":-76.52666666666667},{"code":"CYTH","name":"YTH","city":"THOMPSON","airport":"THOMPSON","country":"CANADA","latitude":55.801111111111105,"longitude":-97.86416666666666},{"code":"CYTR","name":"YTR","city":"TRENTON","airport":"TRENTON","country":"CANADA","latitude":44.11888888888889,"longitude":-77.52805555555555},{"code":"CYTS","name":"YTS","city":"TIMMINS","airport":"TIMMINS","country":"CANADA","latitude":48.569722222222225,"longitude":-81.37666666666667},{"code":"CYTZ","name":"YTZ","city":"CITY CENTRE","airport":"TORONTO","country":"CANADA","latitude":43.6275,"longitude":-79.39611111111111},{"code":"CYUB","name":"YUB","city":"TUKTOYAKTUK","airport":"TUKTOYAKTUK","country":"CANADA","latitude":69.43333333333334,"longitude":-133.0263888888889},{"code":"CYUL","name":"YUL","city":"MONTREAL INTERNATIONAL DORVAL","airport":"MONTREAL","country":"CANADA","latitude":45.46805555555556,"longitude":-73.74138888888889},{"code":"CYUT","name":"YUT","city":"REPULSE BAY","airport":"REPULSE BAY","country":"CANADA","latitude":66.5213888888889,"longitude":-86.22472222222223},{"code":"CYUX","name":"YUX","city":"HALL BEACH","airport":"HALL BEACH","country":"CANADA","latitude":68.7761111111111,"longitude":-81.24361111111111},{"code":"CYUY","name":"YUY","city":"ROUYN NORANDA","airport":"ROUYN","country":"CANADA","latitude":48.20611111111111,"longitude":-78.83555555555554},{"code":"CYVC","name":"YVC","city":"LA RONGE","airport":"LA RONGE","country":"CANADA","latitude":55.15138888888889,"longitude":-105.26194444444444},{"code":"CYVG","name":"YVG","city":"VERMILION","airport":"VERMILLION","country":"CANADA","latitude":53.35583333333334,"longitude":-110.82388888888889},{"code":"CYVM","name":"YVM","city":"QIKIQTARJUAQ","airport":"BROUGHTON ISLAND","country":"CANADA","latitude":67.54583333333333,"longitude":-64.03138888888888},{"code":"CYVO","name":"YVO","city":"VAL D OR","airport":"VAL D'OR","country":"CANADA","latitude":48.05333333333333,"longitude":-77.78277777777778},{"code":"CYVP","name":"YVP","city":"KUUJJUAQ","airport":"QUUJJUAQ","country":"CANADA","latitude":58.096111111111114,"longitude":-68.42694444444444},{"code":"CYVQ","name":"YVQ","city":"NORMAN WELLS","airport":"NORMAN WELLS","country":"CANADA","latitude":65.2825,"longitude":-126.80027777777778},{"code":"CYVR","name":"YVR","city":"VANCOUVER INTERNATIONAL","airport":"VANCOUVER","country":"CANADA","latitude":49.19499999999999,"longitude":-123.18194444444445},{"code":"CYVT","name":"YVT","city":"BUFFALO NARROWS","airport":"BUFFALO NARROWS","country":"CANADA","latitude":55.841944444444444,"longitude":-108.4175},{"code":"CYVV","name":"YVV","city":"WIARTON","airport":"WIARTON","country":"CANADA","latitude":44.74583333333334,"longitude":-81.10722222222222},{"code":"CYWA","name":"YWA","city":"PETAWAWA","airport":"PETAWAWA","country":"CANADA","latitude":45.952222222222225,"longitude":-77.31916666666666},{"code":"CYWG","name":"YWG","city":"WINNIPEG INTERNATIONAL","airport":"WINNIPEG","country":"CANADA","latitude":49.91,"longitude":-97.23444444444445},{"code":"CYWK","name":"YWK","city":"WABUSH","airport":"WABUSH","country":"CANADA","latitude":52.92194444444444,"longitude":-66.86444444444444},{"code":"CYWL","name":"YWL","city":"WILLIAMS LAKE","airport":"WILLIAMS LAKE","country":"CANADA","latitude":52.183055555555555,"longitude":-122.05416666666666},{"code":"CYWY","name":"YWY","city":"WRIGLEY","airport":"WRIGLEY","country":"CANADA","latitude":63.20944444444445,"longitude":-123.43666666666667},{"code":"CYXC","name":"YXC","city":"CRANBROOK","airport":"CRANBROOK","country":"CANADA","latitude":49.61027777777778,"longitude":-115.7825},{"code":"CYXD","name":"YXD","city":"EDMONTON CITY CENTRE","airport":"EDMONTON","country":"CANADA","latitude":53.572500000000005,"longitude":-113.52055555555556},{"code":"CYXE","name":"YXE","city":"SASKATOON J G DIEFENBAKER INTERNATIONAL","airport":"SASKATOON","country":"CANADA","latitude":52.170833333333334,"longitude":-106.69972222222222},{"code":"CYXH","name":"YXH","city":"MEDICINE HAT","airport":"MEDICINE HAT","country":"CANADA","latitude":50.01888888888889,"longitude":-110.72083333333333},{"code":"CYXJ","name":"YXJ","city":"FORT ST JOHN","airport":"FORT SAINT JOHN","country":"CANADA","latitude":56.238055555555555,"longitude":-120.74027777777778},{"code":"CYXL","name":"YXL","city":"SIOUX LOOKOUT","airport":"SIOUX LOOKOUT","country":"CANADA","latitude":50.114444444444445,"longitude":-91.90416666666667},{"code":"CYXP","name":"YXP","city":"PANGNIRTUNG","airport":"PANGNIRTUNG","country":"CANADA","latitude":66.14500000000001,"longitude":-65.71361111111112},{"code":"CYXR","name":"YXR","city":"TIMISKAMING RGNL","airport":"EARLTON","country":"CANADA","latitude":47.69499999999999,"longitude":-79.84888888888888},{"code":"CYXS","name":"YXS","city":"PRINCE GEORGE","airport":"PRINCE GEORGE","country":"CANADA","latitude":53.88944444444444,"longitude":-122.67888888888889},{"code":"CYXT","name":"YXT","city":"TERRACE","airport":"TERRACE","country":"CANADA","latitude":54.46638888888889,"longitude":-128.5775},{"code":"CYXU","name":"YXU","city":"LONDON","airport":"LONDON","country":"CANADA","latitude":43.035555555555554,"longitude":-81.1538888888889},{"code":"CYXX","name":"YXX","city":"ABBOTSFORD","airport":"ABBOTSFORD","country":"CANADA","latitude":49.025277777777774,"longitude":-122.36333333333333},{"code":"CYXY","name":"YXY","city":"WHITEHORSE INTERNATIONAL","airport":"WHITEHORSE","country":"CANADA","latitude":60.70944444444445,"longitude":-135.06833333333333},{"code":"CYYB","name":"YYB","city":"NORTH BAY","airport":"NORTH BAY","country":"CANADA","latitude":46.36361111111111,"longitude":-79.42277777777778},{"code":"CYYC","name":"YYC","city":"CALGARY INTERNATIONAL","airport":"CALGARY","country":"CANADA","latitude":51.11388888888889,"longitude":-114.02027777777778},{"code":"CYYD","name":"YYD","city":"SMITHERS","airport":"SMITHERS","country":"CANADA","latitude":54.82472222222223,"longitude":-127.18277777777779},{"code":"CYYE","name":"YYE","city":"FORT NELSON","airport":"FORT NELSON","country":"CANADA","latitude":58.83638888888889,"longitude":-122.59694444444445},{"code":"CYYF","name":"YYF","city":"PENTICTON","airport":"PENTICTON","country":"CANADA","latitude":49.46277777777778,"longitude":-119.60222222222221},{"code":"CYYG","name":"YYG","city":"CHARLOTTETOWN","airport":"CHARLOTTETOWN","country":"CANADA","latitude":46.29,"longitude":-63.12111111111111},{"code":"CYYH","name":"YYH","city":"TALOYOAK","airport":"SPENCE BAY","country":"CANADA","latitude":69.54666666666667,"longitude":-93.57666666666667},{"code":"CYYJ","name":"YYJ","city":"VICTORIA INTERNATIONAL","airport":"VICTORIA","country":"CANADA","latitude":48.64694444444444,"longitude":-123.42583333333334},{"code":"CYYL","name":"YYL","city":"LYNN LAKE","airport":"LYNN LAKE","country":"CANADA","latitude":56.86388888888889,"longitude":-101.0761111111111},{"code":"CYYN","name":"YYN","city":"SWIFT CURRENT","airport":"SWIFT CURRENT","country":"CANADA","latitude":50.29194444444444,"longitude":-107.69055555555556},{"code":"CYYQ","name":"YYQ","city":"CHURCHILL","airport":"CHURCHILL","country":"CANADA","latitude":58.73916666666667,"longitude":-94.065},{"code":"CYYR","name":"YYR","city":"GOOSE BAY","airport":"GOOSE BAY","country":"CANADA","latitude":53.31916666666667,"longitude":-60.42583333333333},{"code":"CYYT","name":"YYT","city":"ST JOHNS INTERNATIONAL","airport":"ST. JOHN'S","country":"CANADA","latitude":47.618611111111115,"longitude":-52.75194444444445},{"code":"CYYU","name":"YYU","city":"KAPUSKASING","airport":"KAPUSKASING","country":"CANADA","latitude":49.413888888888884,"longitude":-82.4675},{"code":"CYYW","name":"YYW","city":"ARMSTRONG","airport":"ARMSTRONG","country":"CANADA","latitude":50.290277777777774,"longitude":-88.90972222222223},{"code":"CYYY","name":"YYY","city":"MONT JOLI","airport":"MONT JOLI","country":"CANADA","latitude":48.60861111111111,"longitude":-68.20805555555556},{"code":"CYYZ","name":"YYZ","city":"LESTER B PEARSON INTERNATIONAL","airport":"TORONTO","country":"CANADA","latitude":43.67722222222222,"longitude":-79.63055555555555},{"code":"CYZD","name":"YZD","city":"DOWNSVIEW","airport":"TORONTO","country":"CANADA","latitude":43.7425,"longitude":-79.46555555555555},{"code":"CYZE","name":"YZE","city":"GORE BAY MANITOULIN","airport":"GORE BAY","country":"CANADA","latitude":45.88527777777778,"longitude":-82.56777777777778},{"code":"CYZF","name":"YZF","city":"YELLOWKNIFE","airport":"YELLOWKNIFE","country":"CANADA","latitude":62.46277777777778,"longitude":-114.44027777777778},{"code":"CYZH","name":"YZH","city":"SLAVE LAKE","airport":"SLAVE LAKE","country":"CANADA","latitude":55.29333333333333,"longitude":-114.77833333333334},{"code":"CYZP","name":"YZP","city":"SANDSPIT","airport":"SANDSPIT","country":"CANADA","latitude":53.25416666666667,"longitude":-131.8138888888889},{"code":"CYZR","name":"YZR","city":"CHRIS HADFIELD","airport":"SARNIA","country":"CANADA","latitude":42.99944444444444,"longitude":-82.30888888888889},{"code":"CYZT","name":"YZT","city":"PORT HARDY","airport":"PORT HARDY","country":"CANADA","latitude":50.68055555555555,"longitude":-127.36666666666666},{"code":"CYZU","name":"YZU","city":"WHITECOURT","airport":"WHITECOURT","country":"CANADA","latitude":54.14388888888889,"longitude":-115.78666666666666},{"code":"CYZV","name":"YZV","city":"SEPT ILES","airport":"SEPT-ILES","country":"CANADA","latitude":50.223333333333336,"longitude":-66.26555555555555},{"code":"CYZW","name":"YZW","city":"TESLIN","airport":"TESLIN","country":"CANADA","latitude":60.172777777777775,"longitude":-132.74277777777777},{"code":"CYZX","name":"YZX","city":"GREENWOOD","airport":"GREENWOOD","country":"CANADA","latitude":44.98444444444444,"longitude":-64.91694444444445},{"code":"CZFA","name":"ZFA","city":"FARO","airport":"FARO","country":"CANADA","latitude":62.2075,"longitude":-133.37583333333333},{"code":"CZFM","name":"ZFM","city":"FORT MCPHERSON","airport":"FORT MCPHERSON","country":"CANADA","latitude":67.40777777777778,"longitude":-134.86027777777778},{"code":"DAAE","name":"BJA","city":"SOUMMAM","airport":"BEJAJA","country":"ALGERIA","latitude":36.71194444444445,"longitude":5.069722222222222},{"code":"DAAG","name":"ALG","city":"HOUARI BOUMEDIENE","airport":"ALGIER","country":"ALGERIA","latitude":36.69083333333333,"longitude":3.215277777777778},{"code":"DAAJ","name":"DJG","city":"TISKA","airport":"DJANET","country":"ALGERIA","latitude":24.2925,"longitude":9.452222222222222},{"code":"DAAP","name":"VVZ","city":"ILLIZI","airport":"ILLIZI","country":"ALGERIA","latitude":26.573333333333334,"longitude":8.48361111111111},{"code":"DAAS","name":"GSF","city":"SETIF AIN ARNAT","airport":"SETIF","country":"ALGERIA","latitude":36.17805555555555,"longitude":5.3244444444444445},{"code":"DAAT","name":"TMR","city":"TAMANRASSET","airport":"TAMANRASSET","country":"ALGERIA","latitude":22.810833333333335,"longitude":5.450833333333334},{"code":"DAAV","name":"GJL","city":"JIJEL","airport":"JIJEL","country":"ALGERIA","latitude":36.794999999999995,"longitude":5.873333333333334},{"code":"DABB","name":"AAE","city":"ANNABA","airport":"ANNABA","country":"ALGERIA","latitude":36.82222222222222,"longitude":7.809166666666666},{"code":"DABC","name":"CZL","city":"MOHAMED BOUDIAF INTERNATIONAL","airport":"CONSTANTINE","country":"ALGERIA","latitude":36.276666666666664,"longitude":6.62388888888889},{"code":"DABS","name":"TEE","city":"CHEIKH LARBI TEBESSI","airport":"TEBESSA","country":"ALGERIA","latitude":35.43138888888889,"longitude":8.120555555555557},{"code":"DAFH","name":"HRM","city":"HASSI R MEL","airport":"TILREMPT","country":"ALGERIA","latitude":32.92972222222222,"longitude":3.312222222222222},{"code":"DAOB","name":"TID","city":"BOU CHEKIF","airport":"TIARET","country":"ALGERIA","latitude":35.34111111111111,"longitude":1.4630555555555556},{"code":"DAOF","name":"TIN","city":"TINDOUF","airport":"TINDOUF","country":"ALGERIA","latitude":27.700277777777778,"longitude":-8.166944444444443},{"code":"DAOI","name":"QAS","city":"ECH CHELIFF","airport":"ECH-CHELIFF","country":"ALGERIA","latitude":36.212500000000006,"longitude":1.3316666666666666},{"code":"DAOL","name":"TAF","city":"TAFARAOUI","airport":"ORAN","country":"ALGERIA","latitude":35.54222222222222,"longitude":-0.5322222222222223},{"code":"DAON","name":"TLM","city":"ZENATA","airport":"TLEMCEN","country":"ALGERIA","latitude":35.016666666666666,"longitude":-1.45},{"code":"DAOO","name":"ORN","city":"ES SENIA","airport":"ORAN","country":"ALGERIA","latitude":35.62361111111111,"longitude":-0.6211111111111112},{"code":"DAOV","name":"MUW","city":"GHRISS","airport":"GHRISS","country":"ALGERIA","latitude":35.2075,"longitude":0.14694444444444443},{"code":"DAUA","name":"AZR","city":"TOUAT CHEIKH SIDI MOHAMED BELKEBIR","airport":"ADRAR","country":"ALGERIA","latitude":27.8375,"longitude":-0.18638888888888888},{"code":"DAUB","name":"BSK","city":"BISKRA","airport":"BISKRA","country":"ALGERIA","latitude":34.793055555555554,"longitude":5.7380555555555555},{"code":"DAUE","name":"ELG","city":"EL GOLEA","airport":"EL GOLEA","country":"ALGERIA","latitude":30.57111111111111,"longitude":2.8594444444444447},{"code":"DAUG","name":"GHA","city":"NOUMERATE","airport":"GHARDAIA","country":"ALGERIA","latitude":32.38388888888889,"longitude":3.7938888888888886},{"code":"DAUH","name":"HME","city":"OUED IRARA","airport":"HASSI-MESSAOUD","country":"ALGERIA","latitude":31.672777777777778,"longitude":6.140277777777778},{"code":"DAUI","name":"INZ","city":"IN SALAH","airport":"IN SALAH","country":"ALGERIA","latitude":27.250833333333333,"longitude":2.5119444444444445},{"code":"DAUK","name":"TGR","city":"SIDI MAHDI","airport":"TOUGGOURT","country":"ALGERIA","latitude":33.06777777777778,"longitude":6.088611111111111},{"code":"DAUL","name":"LOO","city":"LAGHOUAT","airport":"LAGHOUAT","country":"ALGERIA","latitude":33.763888888888886,"longitude":2.927222222222222},{"code":"DAUT","name":"TMX","city":"TIMIMOUN","airport":"TIMIMOUN","country":"ALGERIA","latitude":29.236944444444447,"longitude":0.2758333333333333},{"code":"DAUU","name":"OGX","city":"OUARGLA","airport":"OUARGLA","country":"ALGERIA","latitude":31.91722222222222,"longitude":5.412777777777778},{"code":"DAUZ","name":"IAM","city":"IN AMENAS","airport":"ZARZAITINE","country":"ALGERIA","latitude":28.05138888888889,"longitude":9.642777777777777},{"code":"DBBB","name":"COO","city":"COTONOU CADJEHOUN","airport":"COTONOU","country":"BENIN","latitude":6.357222222222222,"longitude":2.3841666666666668},{"code":"DBBP","name":"PKO","city":"PARAKOU","airport":"PARAKOU","country":"BENIN","latitude":9.356944444444444,"longitude":2.608888888888889},{"code":"DFFD","name":"OUA","city":"OUAGADOUGOU","airport":"OUAGADOUGOU","country":"BURKINA FASO","latitude":12.353055555555555,"longitude":-1.5122222222222221},{"code":"DFOO","name":"BOY","city":"BOBO DIOULASSO","airport":"BOBO-DIOULASSO","country":"BURKINA FASO","latitude":11.16,"longitude":-4.3308333333333335},{"code":"DGAA","name":"ACC","city":"KOTOKA INTERNATIONAL","airport":"ACCRA","country":"GHANA","latitude":5.602777777777778,"longitude":-0.16805555555555554},{"code":"DGLE","name":"TML","city":"TAMALE","airport":"TAMALE","country":"GHANA","latitude":9.563333333333334,"longitude":-0.8633333333333333},{"code":"DGSN","name":"NYI","city":"SUNYANI","airport":"SUNYANI","country":"GHANA","latitude":7.361666666666666,"longitude":-2.328611111111111},{"code":"DGTK","name":"TKD","city":"TAKORADI","airport":"TAKORADI","country":"GHANA","latitude":4.893333333333333,"longitude":-1.775},{"code":"DIAP","name":"ABJ","city":"ABIDJAN FELIX HOUPHOUET BOIGNY INTERNATIONAL","airport":"ABIDJAN","country":"IVORY COAST","latitude":5.259722222222222,"longitude":-3.926388888888889},{"code":"DIBK","name":"BYK","city":"BOUAKE","airport":"BOUAKE","country":"IVORY COAST","latitude":7.738611111111111,"longitude":-5.073611111111111},{"code":"DIDL","name":"DJO","city":"DALOA","airport":"DALOA","country":"IVORY COAST","latitude":6.7924999999999995,"longitude":-6.473055555555556},{"code":"DIKO","name":"HGO","city":"KORHOGO","airport":"KORHOGO","country":"IVORY COAST","latitude":9.386944444444444,"longitude":-5.556388888888889},{"code":"DIMN","name":"MJC","city":"MAN","airport":"MAN","country":"IVORY COAST","latitude":7.271944444444444,"longitude":-7.586944444444444},{"code":"DISP","name":"SPY","city":"SAN PEDRO","airport":"SAN PEDRO","country":"IVORY COAST","latitude":4.746666666666667,"longitude":-6.660555555555556},{"code":"DIYO","name":"ASK","city":"YAMOUSSOUKRO","airport":"YAMOUSSOUKRO","country":"IVORY COAST","latitude":6.9030555555555555,"longitude":-5.365833333333333},{"code":"DNAA","name":"ABV","city":"ABUJA NNAMDI AZIKIWE INTERNATIONAL","airport":"ABUJA","country":"NIGERIA","latitude":9.006666666666666,"longitude":7.263055555555556},{"code":"DNAK","name":"AKR","city":"AKURE","airport":"AKURE","country":"NIGERIA","latitude":7.246666666666667,"longitude":5.300833333333333},{"code":"DNBE","name":"BNI","city":"BENIN","airport":"BENIN","country":"NIGERIA","latitude":6.317222222222222,"longitude":5.599444444444444},{"code":"DNCA","name":"CBQ","city":"CALABAR","airport":"CALABAR","country":"NIGERIA","latitude":4.975833333333333,"longitude":8.346944444444444},{"code":"DNEN","name":"ENU","city":"ENUGU","airport":"ENUGU","country":"NIGERIA","latitude":6.474166666666667,"longitude":7.561944444444444},{"code":"DNGU","name":"QUS","city":"GUSAU","airport":"GUSAU","country":"NIGERIA","latitude":12.171666666666667,"longitude":6.696111111111112},{"code":"DNIB","name":"IBA","city":"IBADAN","airport":"IBADAN","country":"NIGERIA","latitude":7.362222222222222,"longitude":3.9783333333333335},{"code":"DNIL","name":"ILR","city":"ILORIN","airport":"ILORIN","country":"NIGERIA","latitude":8.44,"longitude":4.493888888888889},{"code":"DNJO","name":"JOS","city":"JOS","airport":"JOS","country":"NIGERIA","latitude":9.639722222222222,"longitude":8.86888888888889},{"code":"DNKA","name":"KAD","city":"KADUNA","airport":"KADUNA","country":"NIGERIA","latitude":10.695833333333333,"longitude":7.319999999999999},{"code":"DNKN","name":"KAN","city":"KANO MALLAM AMINU INTERNATIONAL","airport":"KANO","country":"NIGERIA","latitude":12.0475,"longitude":8.524444444444445},{"code":"DNMA","name":"MIU","city":"MAIDUGURI","airport":"MAIDUGURI","country":"NIGERIA","latitude":11.855277777777777,"longitude":13.080833333333333},{"code":"DNMK","name":"MDI","city":"MAKURDI","airport":"MAKURDI","country":"NIGERIA","latitude":7.703611111111111,"longitude":8.613888888888889},{"code":"DNMM","name":"LOS","city":"LAGOS MURTALA MUHAMMED","airport":"LAGOS","country":"NIGERIA","latitude":6.577222222222222,"longitude":3.3211111111111107},{"code":"DNMN","name":"MXJ","city":"MINNA NEW","airport":"MINNA","country":"NIGERIA","latitude":9.651944444444444,"longitude":6.4622222222222225},{"code":"DNPO","name":"PHC","city":"PORT HARCOURT INTERNATIONAL","airport":"PORT HARTCOURT","country":"NIGERIA","latitude":5.0152777777777775,"longitude":6.9494444444444445},{"code":"DNSO","name":"SKO","city":"SADIQ ABUBAKAR III INTERNATIONAL","airport":"SOKOTO","country":"NIGERIA","latitude":12.916111111111112,"longitude":5.206944444444445},{"code":"DNYO","name":"YOL","city":"YOLA","airport":"YOLA","country":"NIGERIA","latitude":9.260277777777778,"longitude":12.429722222222221},{"code":"DNZA","name":"ZAR","city":"ZARIA","airport":"ZARIA","country":"NIGERIA","latitude":11.13,"longitude":7.685555555555556},{"code":"DRRM","name":"MFG","city":"MARADI","airport":"MARADI","country":"NIGER","latitude":13.5025,"longitude":7.126666666666666},{"code":"DRRN","name":"NIM","city":"DIORI HAMANI","airport":"NIAMEY","country":"NIGER","latitude":13.481388888888889,"longitude":2.183611111111111},{"code":"DRRT","name":"THZ","city":"TAHOUA","airport":"TAHOUA","country":"NIGER","latitude":14.875555555555556,"longitude":5.2652777777777775},{"code":"DRZA","name":"AJY","city":"MANU DAYAK","airport":"AGADEZ","country":"NIGER","latitude":16.96472222222222,"longitude":7.996944444444445},{"code":"DRZR","name":"ZND","city":"ZINDER","airport":"ZINDER","country":"NIGER","latitude":13.77888888888889,"longitude":8.98361111111111},{"code":"DTMB","name":"MIR","city":"HABIB BOURGUIBA INTERNATIONAL","airport":"MONASTIR","country":"TUNISIA","latitude":35.75805555555556,"longitude":10.754722222222222},{"code":"DTTA","name":"TUN","city":"CARTHAGE","airport":"TUNIS","country":"TUNISIA","latitude":36.850833333333334,"longitude":10.226944444444445},{"code":"DTTF","name":"GAF","city":"GAFSA","airport":"GAFSA","country":"TUNISIA","latitude":34.42194444444444,"longitude":8.8225},{"code":"DTTG","name":"GAE","city":"GABES","airport":"GABES","country":"TUNISIA","latitude":33.876666666666665,"longitude":10.103333333333333},{"code":"DTTJ","name":"DJE","city":"ZARZIS","airport":"DJERBA","country":"TUNISIA","latitude":33.875,"longitude":10.775277777777779},{"code":"DTTR","name":"EBM","city":"EL BORMA","airport":"EL BORMA","country":"TUNISIA","latitude":31.704166666666666,"longitude":9.254444444444445},{"code":"DTTX","name":"SFA","city":"THYNA","airport":"SFAX","country":"TUNISIA","latitude":34.717777777777776,"longitude":10.690833333333334},{"code":"DTTZ","name":"TOE","city":"NEFTA","airport":"TOZEUR","country":"TUNISIA","latitude":33.939722222222215,"longitude":8.110555555555555},{"code":"DXNG","name":"LRL","city":"NIAMTOUGOU","airport":"NIATOUGOU","country":"TOGO","latitude":9.767222222222223,"longitude":1.0911111111111111},{"code":"DXXX","name":"LFW","city":"LOME TOKOIN","airport":"LOME","country":"TOGO","latitude":6.165555555555556,"longitude":1.2538888888888888},{"code":"EBAW","name":"ANR","city":"DEURNE","airport":"ANTWERP","country":"BELGIUM","latitude":51.19,"longitude":4.462777777777778},{"code":"EBBR","name":"BRU","city":"BRUSSELS NATL","airport":"BRUSSELS","country":"BELGIUM","latitude":50.90222222222222,"longitude":4.498611111111111},{"code":"EBCI","name":"CRL","city":"BRUSSELS SOUTH","airport":"CHARLEROI","country":"BELGIUM","latitude":50.45916666666667,"longitude":4.453611111111111},{"code":"EBKT","name":"QKT","city":"WEVELGEM","airport":"KORTRIJK-VEVELGEM","country":"BELGIUM","latitude":50.81777777777778,"longitude":3.2083333333333335},{"code":"EBLG","name":"LGG","city":"LIEGE","airport":"LIEGE","country":"BELGIUM","latitude":50.63722222222222,"longitude":5.4430555555555555},{"code":"EBOS","name":"OST","city":"OOSTENDE","airport":"OSTEND","country":"BELGIUM","latitude":51.19888888888889,"longitude":2.8622222222222224},{"code":"EDAB","name":"BBJ","city":"BAUTZEN","airport":"BAUTZEN","country":"GERMANY","latitude":51.19333333333333,"longitude":14.519722222222223},{"code":"EDAC","name":"AOC","city":"ALTENBURG NOBITZ","airport":"ALTENBURG","country":"GERMANY","latitude":50.98166666666667,"longitude":12.50611111111111},{"code":"EDBG","name":"GWW","city":"GOLDSBORO WAYNE MUNI","airport":"GOTHA OST","country":"GERMANY","latitude":35.46055555555556,"longitude":-77.96472222222222},{"code":"EDDB","name":"SXF","city":"SCHONEFELD","airport":"BERLIN","country":"GERMANY","latitude":52.38,"longitude":13.5225},{"code":"EDDC","name":"DRS","city":"DRESDEN","airport":"DRESDEN","country":"GERMANY","latitude":51.1325,"longitude":13.766944444444444},{"code":"EDDE","name":"ERF","city":"ERFURT","airport":"ERFURT","country":"GERMANY","latitude":50.980000000000004,"longitude":10.958055555555555},{"code":"EDDF","name":"FRA","city":"FRANKFURT MAIN","airport":"FRANKFURT","country":"GERMANY","latitude":50.02638888888889,"longitude":8.543055555555556},{"code":"EDDG","name":"FMO","city":"MUNSTER OSNABRUCK","airport":"MUENSTER/OSNABRUECK","country":"GERMANY","latitude":52.13444444444444,"longitude":7.684722222222223},{"code":"EDDH","name":"HAM","city":"HAMBURG","airport":"HAMBURG","country":"GERMANY","latitude":53.63027777777778,"longitude":9.988055555555555},{"code":"EDDI","name":"THF","city":"TEMPELHOF","airport":"BERLIN","country":"GERMANY","latitude":52.47277777777778,"longitude":13.40388888888889},{"code":"EDDK","name":"CGN","city":"KOLN BONN","airport":"COLOGNE","country":"GERMANY","latitude":50.865833333333335,"longitude":7.1425},{"code":"EDDL","name":"DUS","city":"DUSSELDORF","airport":"DUESSELDORF","country":"GERMANY","latitude":51.28944444444444,"longitude":6.766666666666667},{"code":"EDDM","name":"MUC","city":"MUNICH","airport":"MUNICH","country":"GERMANY","latitude":48.353611111111114,"longitude":11.785833333333333},{"code":"EDDN","name":"NUE","city":"NURNBERG","airport":"NUERNBERG","country":"GERMANY","latitude":49.49861111111111,"longitude":11.078055555555554},{"code":"EDDP","name":"LEJ","city":"LEIPZIG HALLE","airport":"LEIPZIG","country":"GERMANY","latitude":51.42388888888889,"longitude":12.23611111111111},{"code":"EDDR","name":"SCN","city":"SAARBRUCKEN","airport":"SAARBRUECKEN","country":"GERMANY","latitude":49.214444444444446,"longitude":7.109444444444444},{"code":"EDDS","name":"STR","city":"STUTTGART","airport":"STUTTGART","country":"GERMANY","latitude":48.689722222222215,"longitude":9.221944444444444},{"code":"EDDT","name":"TXL","city":"TEGEL","airport":"BERLIN","country":"GERMANY","latitude":52.559444444444445,"longitude":13.2875},{"code":"EDDV","name":"HAJ","city":"HANNOVER","airport":"HANNOVER","country":"GERMANY","latitude":52.46083333333333,"longitude":9.685},{"code":"EDDW","name":"BRE","city":"BREMEN","airport":"BREMEN","country":"GERMANY","latitude":53.0475,"longitude":8.786666666666667},{"code":"EDFH","name":"HHN","city":"FRANKFURT HAHN","airport":"HAHN","country":"GERMANY","latitude":49.94972222222222,"longitude":7.263888888888889},{"code":"EDFM","name":"MHG","city":"MANNHEIM CITY","airport":"MANNHEIM","country":"GERMANY","latitude":49.472500000000004,"longitude":8.51361111111111},{"code":"EDHI","name":"XFW","city":"HAMBURG FINKENWERDER","airport":"HAMBURG","country":"GERMANY","latitude":53.53527777777778,"longitude":9.835277777777778},{"code":"EDHK","name":"KEL","city":"KIEL HOLTENAU","airport":"KIEL","country":"GERMANY","latitude":54.379444444444445,"longitude":10.145},{"code":"EDHL","name":"LBC","city":"LUBECK BLANKENSEE","airport":"LUEBECK","country":"GERMANY","latitude":53.805277777777775,"longitude":10.719166666666666},{"code":"EDKA","name":"AAH","city":"AACHEN MERZBRUCK","airport":"AACHEN","country":"GERMANY","latitude":50.82277777777778,"longitude":6.187222222222222},{"code":"EDLA","name":"ZCA","city":"ARNSBERG MENDEN","airport":"ARNSBERG","country":"GERMANY","latitude":51.483333333333334,"longitude":7.899166666666666},{"code":"EDLE","name":"ESS","city":"ESSEN MULHEIM","airport":"ESSEN","country":"GERMANY","latitude":51.40138888888889,"longitude":6.935833333333334},{"code":"EDLN","name":"MGL","city":"MONCHENGLADBACH","airport":"MOENCHENGLADBACH","country":"GERMANY","latitude":51.23027777777778,"longitude":6.504444444444444},{"code":"EDLP","name":"PAD","city":"PADERBORN LIPPSTADT","airport":"PADERBORN","country":"GERMANY","latitude":51.61416666666667,"longitude":8.616111111111111},{"code":"EDLW","name":"DTM","city":"DORTMUND","airport":"DORTMUND","country":"GERMANY","latitude":51.518055555555556,"longitude":7.612222222222222},{"code":"EDMA","name":"AGB","city":"AUGSBURG","airport":"AUGSBURG","country":"GERMANY","latitude":48.425,"longitude":10.931666666666667},{"code":"EDMO","name":"OBF","city":"OBERPFAFFENHOFEN","airport":"OBERPFAFFENHOFEN","country":"GERMANY","latitude":48.081388888888895,"longitude":11.283333333333333},{"code":"EDNY","name":"FDH","city":"FRIEDRICHSHAFEN","airport":"FRIEDRICHSHAFEN","country":"GERMANY","latitude":47.67111111111111,"longitude":9.511388888888888},{"code":"EDOP","name":"SZW","city":"SCHWERIN PARCHIM","airport":"PARCHIM","country":"GERMANY","latitude":53.426944444444445,"longitude":11.783333333333333},{"code":"EDQD","name":"BYU","city":"BAYREUTH","airport":"BAYREUTH","country":"GERMANY","latitude":49.98416666666667,"longitude":11.638333333333334},{"code":"EDQM","name":"HOQ","city":"HOF PLAUEN","airport":"HOF","country":"GERMANY","latitude":50.28861111111111,"longitude":11.854722222222222},{"code":"EDRK","name":"ZNV","city":"KOBLENZ WINNINGEN","airport":"KOBLENZ","country":"GERMANY","latitude":50.32472222222223,"longitude":7.530833333333334},{"code":"EDRT","name":"ZQF","city":"TRIER FOHREN","airport":"TRIER","country":"GERMANY","latitude":49.86333333333334,"longitude":6.788888888888889},{"code":"EDRY","name":"ZQC","city":"SPEYER","airport":"SPEYER","country":"GERMANY","latitude":49.302499999999995,"longitude":8.45111111111111},{"code":"EDTB","name":"ZCC","city":"BADEN OOS","airport":"BADEN-BADEN","country":"GERMANY","latitude":48.79111111111111,"longitude":8.186944444444444},{"code":"EDTD","name":"ZQL","city":"DONAUESCHINGEN VILLINGEN","airport":"DONAUESCHINGEN","country":"GERMANY","latitude":47.973055555555554,"longitude":8.522222222222224},{"code":"EDVE","name":"BWE","city":"BRAUNSCHWEIG","airport":"BRAUNSCHWEIG","country":"GERMANY","latitude":52.31916666666667,"longitude":10.556111111111111},{"code":"EDVK","name":"KSF","city":"KASSEL CALDEN","airport":"KASSEL","country":"GERMANY","latitude":51.40833333333333,"longitude":9.377500000000001},{"code":"EDWB","name":"BRV","city":"BREMERHAVEN","airport":"BREMERHAVEN","country":"GERMANY","latitude":53.50333333333333,"longitude":8.573333333333332},{"code":"EDWD","name":"LEM","city":"LEMWERDER","airport":"LEMWERDER","country":"GERMANY","latitude":53.143055555555556,"longitude":8.623333333333333},{"code":"EDWE","name":"EME","city":"EMDEN","airport":"EMDEN","country":"GERMANY","latitude":53.39111111111111,"longitude":7.227222222222222},{"code":"EDWI","name":"WVN","city":"WILHELMSHAVEN MARIENSIEL","airport":"WILHELMSHAVEN","country":"GERMANY","latitude":53.50472222222222,"longitude":8.053333333333335},{"code":"EDWR","name":"BMK","city":"BORKUM","airport":"BORKUM","country":"GERMANY","latitude":53.59527777777778,"longitude":6.7091666666666665},{"code":"EDWY","name":"NRD","city":"NORDERNEY","airport":"NORDERNEY","country":"GERMANY","latitude":53.70666666666667,"longitude":7.23},{"code":"EDXW","name":"GWT","city":"WESTERLAND SYLT","airport":"WESTERLAND","country":"GERMANY","latitude":54.91305555555555,"longitude":8.340277777777779},{"code":"EETN","name":"TLL","city":"TALLINN","airport":"TALLINN-ULEMISTE INTERNATIONAL","country":"ESTONIA","latitude":59.41305555555555,"longitude":24.83277777777778},{"code":"EFET","name":"ENF","city":"ENONTEKIO","airport":"ENONTEKIO","country":"FINLAND","latitude":68.3625,"longitude":23.424166666666668},{"code":"EFHA","name":"KEV","city":"HALLI","airport":"HALLI","country":"FINLAND","latitude":61.85583333333334,"longitude":24.78638888888889},{"code":"EFHF","name":"HEM","city":"HELSINKI MALMI","airport":"HELSINKI","country":"FINLAND","latitude":60.254444444444445,"longitude":25.04277777777778},{"code":"EFHK","name":"HEL","city":"HELSINKI VANTAA","airport":"HELSINKI","country":"FINLAND","latitude":60.32,"longitude":24.95611111111111},{"code":"EFIV","name":"IVL","city":"IVALO","airport":"IVALO","country":"FINLAND","latitude":68.60722222222222,"longitude":27.405277777777776},{"code":"EFJO","name":"JOE","city":"JOENSUU","airport":"JOENSUU","country":"FINLAND","latitude":62.65888888888889,"longitude":29.624444444444446},{"code":"EFJY","name":"JYV","city":"JYVASKYLA","airport":"JYVASKYLA","country":"FINLAND","latitude":62.39944444444444,"longitude":25.678055555555556},{"code":"EFKA","name":"KAU","city":"KAUHAVA","airport":"KAUHAVA","country":"FINLAND","latitude":63.12694444444445,"longitude":23.05138888888889},{"code":"EFKE","name":"KEM","city":"KEMI TORNIO","airport":"KEMI","country":"FINLAND","latitude":65.78166666666667,"longitude":24.598888888888887},{"code":"EFKI","name":"KAJ","city":"KAJAANI","airport":"KAJAANI","country":"FINLAND","latitude":64.28527777777778,"longitude":27.692222222222224},{"code":"EFKK","name":"KOK","city":"KRUUNUPYY","airport":"KRUUNUPYY","country":"FINLAND","latitude":63.721111111111114,"longitude":23.143055555555556},{"code":"EFKS","name":"KAO","city":"KUUSAMO","airport":"KUUSAMO","country":"FINLAND","latitude":65.9875,"longitude":29.239166666666666},{"code":"EFKT","name":"KTT","city":"KITTILA","airport":"KITTILA","country":"FINLAND","latitude":67.70083333333334,"longitude":24.846666666666664},{"code":"EFKU","name":"KUO","city":"KUOPIO","airport":"KUOPIO","country":"FINLAND","latitude":63.00694444444444,"longitude":27.797500000000003},{"code":"EFLP","name":"LPP","city":"LAPPEENRANTA","airport":"LAPPEENRANTA","country":"FINLAND","latitude":61.044444444444444,"longitude":28.144166666666667},{"code":"EFMA","name":"MHQ","city":"MARIEHAMN","airport":"MARIEHAMN","country":"FINLAND","latitude":60.121944444444445,"longitude":19.898055555555555},{"code":"EFMI","name":"MIK","city":"MIKKELI","airport":"MIKKELI","country":"FINLAND","latitude":61.686388888888885,"longitude":27.201666666666664},{"code":"EFOU","name":"OUL","city":"OULU","airport":"OULU","country":"FINLAND","latitude":64.93,"longitude":25.354444444444447},{"code":"EFPO","name":"POR","city":"PORI","airport":"PORI","country":"FINLAND","latitude":61.461666666666666,"longitude":21.799722222222226},{"code":"EFRO","name":"RVN","city":"ROVANIEMI","airport":"ROVANIEMI","country":"FINLAND","latitude":66.56472222222222,"longitude":25.830277777777777},{"code":"EFSA","name":"SVL","city":"SAVONLINNA","airport":"SAVONLINNA","country":"FINLAND","latitude":61.94305555555555,"longitude":28.945},{"code":"EFSO","name":"SOT","city":"SODANKYLA","airport":"SODANKYLA","country":"FINLAND","latitude":67.39500000000001,"longitude":26.61888888888889},{"code":"EFTP","name":"TMP","city":"TAMPERE PIRKKALA","airport":"TAMPERE","country":"FINLAND","latitude":61.413888888888884,"longitude":23.604166666666668},{"code":"EFTU","name":"TKU","city":"TURKU","airport":"TURKU","country":"FINLAND","latitude":60.513888888888886,"longitude":22.262777777777778},{"code":"EFUT","name":"QVY","city":"UTTI","airport":"UTTI","country":"FINLAND","latitude":60.896388888888886,"longitude":26.938333333333333},{"code":"EFVA","name":"VAA","city":"VAASA","airport":"VAASA","country":"FINLAND","latitude":63.051111111111105,"longitude":21.761388888888888},{"code":"EFVR","name":"VRK","city":"VARKAUS","airport":"VARKAUS","country":"FINLAND","latitude":62.17111111111111,"longitude":27.86861111111111},{"code":"EGAA","name":"BFS","city":"ALDERGROVE","airport":"BELFAST","country":"NORTH IRELAND","latitude":54.6575,"longitude":-6.215833333333333},{"code":"EGAB","name":"ENK","city":"ST ANGELO","airport":"ENNISKILLEN","country":"ENGLAND","latitude":54.39888888888889,"longitude":-7.651666666666667},{"code":"EGAC","name":"BHD","city":"CITY","airport":"BELFAST","country":"NORTH IRELAND","latitude":54.61805555555556,"longitude":-5.8725000000000005},{"code":"EGAE","name":"LDY","city":"LONDONDERRY EGLINTON","airport":"LONDONDERRY","country":"NORTH IRELAND","latitude":55.04277777777778,"longitude":-7.161111111111111},{"code":"EGBB","name":"BHX","city":"BIRMINGHAM","airport":"BIRMINGHAM","country":"ENGLAND","latitude":52.453611111111115,"longitude":-1.7477777777777779},{"code":"EGBE","name":"CVT","city":"COVENTRY","airport":"COVENTRY","country":"ENGLAND","latitude":52.36972222222222,"longitude":-1.4797222222222224},{"code":"EGBJ","name":"GLO","city":"GLOUCESTERSHIRE","airport":"GOLOUCHESTERSHIRE","country":"ENGLAND","latitude":51.89416666666666,"longitude":-2.167222222222222},{"code":"EGCC","name":"MAN","city":"MANCHESTER","airport":"MANCHESTER","country":"ENGLAND","latitude":53.353611111111114,"longitude":-2.274722222222222},{"code":"EGDG","name":"NQY","city":"ST MAWGAN","airport":"NEWQUAI","country":"ENGLAND","latitude":50.440555555555555,"longitude":-4.995277777777778},{"code":"EGDL","name":"LYE","city":"LYNEHAM","airport":"LYNEHAM","country":"UK","latitude":51.505,"longitude":-1.9933333333333334},{"code":"EGDY","name":"YEO","city":"YEOVILTON","airport":"YEOVILTON","country":"UK","latitude":51.009166666666665,"longitude":-2.638611111111111},{"code":"EGFF","name":"CWL","city":"CARDIFF","airport":"CARDIFF","country":"WALES","latitude":51.39666666666667,"longitude":-3.3433333333333333},{"code":"EGFH","name":"SWS","city":"SWANSEA","airport":"SWANSEA","country":"ENGLAND","latitude":51.60527777777778,"longitude":-4.067777777777778},{"code":"EGGD","name":"BRS","city":"BRISTOL","airport":"BRISTOL","country":"ENGLAND","latitude":51.3825,"longitude":-2.718888888888889},{"code":"EGGP","name":"LPL","city":"LIVERPOOL","airport":"LIVERPOOL","country":"ENGLAND","latitude":53.33361111111111,"longitude":-2.8497222222222223},{"code":"EGGW","name":"LTN","city":"LUTON","airport":"LONDON","country":"ENGLAND","latitude":51.87444444444444,"longitude":-0.3683333333333333},{"code":"EGHD","name":"PLH","city":"PLYMOUTH","airport":"PLYMOUTH","country":"ENGLAND","latitude":50.422777777777775,"longitude":-4.105833333333333},{"code":"EGHH","name":"BOH","city":"BOURNEMOUTH","airport":"BOURNEMOUTH","country":"ENGLAND","latitude":50.78,"longitude":-1.8425000000000002},{"code":"EGHI","name":"SOU","city":"SOUTHAMPTON","airport":"SOUTHAMPTON","country":"ENGLAND","latitude":50.95,"longitude":-1.3566666666666667},{"code":"EGHL","name":"QLA","city":"LASHAM","airport":"LASHAM","country":"ENGLAND","latitude":51.184999999999995,"longitude":-1.0322222222222222},{"code":"EGJB","name":"GCI","city":"GUERNSEY","airport":"GUERNSEY","country":"GUERNSEY ISLD.","latitude":49.43472222222222,"longitude":-2.6019444444444444},{"code":"EGJJ","name":"JER","city":"JERSEY","airport":"JERSEY","country":"ENGLAND","latitude":49.20777777777778,"longitude":-2.1952777777777777},{"code":"EGKA","name":"ESH","city":"SHOREHAM","airport":"SHOREHAM BY SEA","country":"ENGLAND","latitude":50.83555555555556,"longitude":-0.2972222222222222},{"code":"EGKB","name":"BQH","city":"BIGGIN HILL","airport":"BIGGIN HILL","country":"ENGLAND","latitude":51.33083333333334,"longitude":0.0325},{"code":"EGKK","name":"LGW","city":"GATWICK","airport":"LONDON","country":"ENGLAND","latitude":51.14805555555556,"longitude":-0.19027777777777777},{"code":"EGLC","name":"LCY","city":"CITY","airport":"LONDON","country":"ENGLAND","latitude":51.505,"longitude":0.05416666666666667},{"code":"EGLF","name":"FAB","city":"FARNBOROUGH","airport":"FARNBOROUGH","country":"ENGLAND","latitude":51.27583333333333,"longitude":-0.7761111111111112},{"code":"EGLK","name":"BBS","city":"BLACKBUSHE","airport":"BLACKBUSHE","country":"ENGLAND","latitude":51.323888888888895,"longitude":-0.8475},{"code":"EGLL","name":"LHR","city":"HEATHROW","airport":"LONDON","country":"ENGALND","latitude":51.4775,"longitude":-0.4613888888888889},{"code":"EGMC","name":"SEN","city":"SOUTHEND","airport":"SOUTHEND","country":"ENGLAND","latitude":51.57138888888889,"longitude":0.6955555555555556},{"code":"EGMD","name":"LYX","city":"LYDD","airport":"LYDD","country":"UK","latitude":50.95611111111111,"longitude":0.9391666666666667},{"code":"EGMH","name":"MSE","city":"MANSTON","airport":"MANSTON","country":"ENGLAND","latitude":51.342222222222226,"longitude":1.346111111111111},{"code":"EGNC","name":"CAX","city":"CARLISLE","airport":"CARLISLE","country":"ENGLAND","latitude":54.9375,"longitude":-2.8091666666666666},{"code":"EGNH","name":"BLK","city":"BLACKPOOL","airport":"BLACKPOOL","country":"ENGLAND","latitude":53.77166666666667,"longitude":-3.028611111111111},{"code":"EGNJ","name":"HUY","city":"HUMBERSIDE","airport":"HUMBERSIDE","country":"ENGLAND","latitude":53.574444444444445,"longitude":-0.35083333333333333},{"code":"EGNL","name":"BWF","city":"WALNEY ISLAND","airport":"BARROW ISLAND","country":"ENGLAND","latitude":54.12972222222222,"longitude":-3.256111111111111},{"code":"EGNM","name":"LBA","city":"LEEDS BRADFORD","airport":"LEEDS","country":"ENGLAND","latitude":53.865833333333335,"longitude":-1.6605555555555556},{"code":"EGNR","name":"CEG","city":"HAWARDEN","airport":"HAWARDEN","country":"ENGLAND","latitude":53.17805555555555,"longitude":-2.977777777777778},{"code":"EGNS","name":"IOM","city":"ISLE OF MAN","airport":"ISLE OF MAN","country":"ENGLAND","latitude":54.083333333333336,"longitude":-4.62388888888889},{"code":"EGNT","name":"NCL","city":"NEWCASTLE","airport":"NEWCASTLE","country":"ENGLAND","latitude":55.0375,"longitude":-1.6916666666666667},{"code":"EGNV","name":"MME","city":"TEESSIDE","airport":"TEESSIDE","country":"ENGLAND","latitude":54.509166666666665,"longitude":-1.4291666666666667},{"code":"EGNX","name":"EMA","city":"EAST MIDLANDS","airport":"EAST MIDLANDS","country":"ENGLAND","latitude":52.83111111111111,"longitude":-1.3280555555555555},{"code":"EGPA","name":"KOI","city":"KIRKWALL","airport":"KIRKWALL","country":"SCOTLAND","latitude":58.95805555555556,"longitude":-2.905},{"code":"EGPB","name":"LSI","city":"SUMBURGH","airport":"SUMBURGH","country":"UK","latitude":59.87888888888889,"longitude":-1.2955555555555553},{"code":"EGPC","name":"WIC","city":"WICK","airport":"WICK","country":"UK","latitude":58.45861111111111,"longitude":-3.092777777777778},{"code":"EGPD","name":"ABZ","city":"DYCE","airport":"ABERDEEN","country":"UK","latitude":57.20416666666667,"longitude":-2.200277777777778},{"code":"EGPE","name":"INV","city":"INVERNESS","airport":"INVERNESS","country":"UK","latitude":57.54,"longitude":-4.05},{"code":"EGPF","name":"GLA","city":"GLASGOW","airport":"GLASGOW","country":"UK","latitude":55.871944444444445,"longitude":-4.433055555555556},{"code":"EGPH","name":"EDI","city":"EDINBURGH","airport":"EDINBURGH","country":"UK","latitude":55.95,"longitude":-3.3725},{"code":"EGPI","name":"ILY","city":"ISLAY","airport":"ISLAY","country":"UK","latitude":55.68194444444444,"longitude":-6.256666666666667},{"code":"EGPK","name":"PIK","city":"PRESTWICK","airport":"PRESTWICK","country":"UK","latitude":55.507777777777775,"longitude":-4.586666666666666},{"code":"EGPL","name":"BEB","city":"BENBECULA","airport":"BENBECULA","country":"UK","latitude":57.48111111111111,"longitude":-7.362777777777778},{"code":"EGPM","name":"SDZ","city":"SCATSTA","airport":"SCATSTA","country":"UK","latitude":60.43222222222222,"longitude":-1.2980555555555555},{"code":"EGPN","name":"DND","city":"DUNDEE","airport":"DUNDEE","country":"UK","latitude":56.4525,"longitude":-3.0258333333333334},{"code":"EGPO","name":"SYY","city":"STORNOWAY","airport":"STORNOWAY","country":"UK","latitude":58.21361111111111,"longitude":-6.328888888888889},{"code":"EGPU","name":"TRE","city":"TIREE","airport":"TIREE","country":"UK","latitude":56.49916666666667,"longitude":-6.8691666666666675},{"code":"EGQL","name":"ADX","city":"LEUCHARS","airport":"LEUCHARS","country":"UK","latitude":56.37277777777778,"longitude":-2.868333333333333},{"code":"EGQS","name":"LMO","city":"LOSSIEMOUTH","airport":"LOSSIEMOUTH","country":"UK","latitude":57.705000000000005,"longitude":-3.339166666666667},{"code":"EGSC","name":"CBG","city":"CAMBRIDGE","airport":"CAMBRIDGE","country":"ENGLAND","latitude":52.205000000000005,"longitude":0.175},{"code":"EGSH","name":"NWI","city":"NORWICH","airport":"NORWICH","country":"ENGLAND","latitude":52.67583333333333,"longitude":1.2827777777777778},{"code":"EGSS","name":"STN","city":"STANSTED","airport":"LONDON","country":"ENGLAND","latitude":51.885,"longitude":0.23500000000000001},{"code":"EGTE","name":"EXT","city":"EXETER","airport":"EXETER","country":"ENGLAND","latitude":50.73444444444444,"longitude":-3.4138888888888888},{"code":"EGTG","name":"FZO","city":"BRISTOL FILTON","airport":"BRISTOL","country":"ENGLAND","latitude":51.519444444444446,"longitude":-2.5908333333333333},{"code":"EGTH","name":"HTF","city":"HATFIELD","airport":"HATFIELD","country":"ENGLAND","latitude":51.766666666666666,"longitude":0.25},{"code":"EGTK","name":"OXF","city":"KIDLINGTON","airport":"OXFORD","country":"ENGLAND","latitude":51.83694444444445,"longitude":-1.32},{"code":"EGUN","name":"MHZ","city":"MILDENHALL","airport":"MILDENHALL","country":"ENGLAND","latitude":52.36083333333333,"longitude":0.48833333333333334},{"code":"EGVA","name":"FFD","city":"FAIRFORD","airport":"FAIRFORD","country":"ENGLAND","latitude":51.68194444444444,"longitude":-1.7899999999999998},{"code":"EGVN","name":"BZZ","city":"BRIZE NORTON","airport":"BRIZE NORTON","country":"ENGLAND","latitude":51.749722222222225,"longitude":-1.5836111111111113},{"code":"EGVO","name":"ODH","city":"ODIHAM","airport":"ODIHAM","country":"UK","latitude":51.23416666666667,"longitude":-0.9427777777777778},{"code":"EGWU","name":"NHT","city":"NORTHOLT RAF","airport":"NORTHOLT","country":"UK","latitude":51.55277777777778,"longitude":-0.41805555555555557},{"code":"EGXC","name":"QCY","city":"CONINGSBY","airport":"CONINGSBY","country":"ENGLAND","latitude":53.09277777777778,"longitude":-0.16583333333333333},{"code":"EGXH","name":"BEQ","city":"HONINGTON","airport":"HONINGTON","country":"ENGLAND","latitude":52.3425,"longitude":0.7727777777777778},{"code":"EGXW","name":"WTN","city":"WADDINGTON","airport":"WADDINGTON","country":"UK","latitude":53.16611111111111,"longitude":-0.5236111111111111},{"code":"EGYC","name":"CLF","city":"COLTISHALL","airport":"COLTISHALL","country":"ENGLAND","latitude":52.75472222222222,"longitude":1.3572222222222223},{"code":"EGYM","name":"KNF","city":"MARHAM","airport":"MARHAM","country":"UK","latitude":52.64833333333333,"longitude":0.5502777777777779},{"code":"EGYP","name":"MPN","city":"MOUNT PLEASANT","airport":"MOUNT PLEASANT","country":"FALKLAND ISLANDS","latitude":-51.82277777777778,"longitude":-58.447222222222216},{"code":"EHAM","name":"AMS","city":"SCHIPHOL","airport":"AMSTERDAM","country":"NETHERLANDS","latitude":52.308611111111105,"longitude":4.763888888888889},{"code":"EHBK","name":"MST","city":"MAASTRICHT","airport":"MAASTRICHT","country":"NETHERLANDS","latitude":50.91138888888889,"longitude":5.77},{"code":"EHEH","name":"EIN","city":"EINDHOVEN","airport":"EINDHOVEN","country":"NETHERLANDS","latitude":51.45,"longitude":5.374444444444444},{"code":"EHGG","name":"GRQ","city":"EELDE","airport":"GRONINGEN","country":"NETHERLANDS","latitude":53.11944444444445,"longitude":6.579444444444444},{"code":"EHKD","name":"DHR","city":"DE KOOY","airport":"DE KOOY","country":"NETHERLANDS","latitude":52.92333333333333,"longitude":4.780555555555556},{"code":"EHLW","name":"LWR","city":"LEEUWARDEN","airport":"LEEUWARDEN","country":"NETHERLANDS","latitude":53.228611111111114,"longitude":5.760555555555555},{"code":"EHRD","name":"RTM","city":"ROTTERDAM","airport":"ROTTERDAM","country":"NETHERLANDS","latitude":51.95722222222223,"longitude":4.441666666666667},{"code":"EHSB","name":"UTC","city":"SOESTERBERG","airport":"SOESTERBERG","country":"NETHERLANDS","latitude":52.12694444444445,"longitude":5.276388888888889},{"code":"EHTW","name":"ENS","city":"TWENTHE","airport":"ENSCHEDE","country":"NETHERLANDS","latitude":52.269999999999996,"longitude":6.874166666666667},{"code":"EHVB","name":"LID","city":"VALKENBURG","airport":"VALKENBURG","country":"NETHERLANDS","latitude":52.16972222222222,"longitude":4.426111111111111},{"code":"EHWO","name":"WOE","city":"WOENSDRECHT","airport":"WOENSDRECHT","country":"NETHERLANDS","latitude":51.44888888888889,"longitude":4.341944444444444},{"code":"EICK","name":"ORK","city":"CORK","airport":"CORK","country":"IRELAND","latitude":51.84277777777778,"longitude":-8.491944444444444},{"code":"EICM","name":"GWY","city":"GALWAY","airport":"GALWAY","country":"IRELAND","latitude":53.30138888888889,"longitude":-8.939166666666667},{"code":"EIDW","name":"DUB","city":"DUBLIN","airport":"DUBLIN","country":"IRELAND","latitude":53.42111111111111,"longitude":-6.27},{"code":"EIKN","name":"NOC","city":"CONNAUGHT","airport":"CONNAUGHT","country":"IRELAND","latitude":53.91027777777778,"longitude":-8.818333333333333},{"code":"EIKY","name":"KIR","city":"KERRY","airport":"KERRY","country":"IRELAND","latitude":52.18083333333333,"longitude":-9.523611111111112},{"code":"EINN","name":"SNN","city":"SHANNON","airport":"SHANNON","country":"IRELAND","latitude":52.70194444444445,"longitude":-8.924722222222222},{"code":"EISG","name":"SXL","city":"SLIGO","airport":"SLIGO","country":"IRELAND","latitude":54.28,"longitude":-8.599166666666667},{"code":"EIWF","name":"WAT","city":"WATERFORD","airport":"WATERFORD","country":"IRELAND","latitude":52.18694444444444,"longitude":-7.086944444444444},{"code":"EKAH","name":"AAR","city":"AARHUS","airport":"AARHUS","country":"DENMARK","latitude":56.30416666666667,"longitude":10.619444444444445},{"code":"EKBI","name":"BLL","city":"BILLUND","airport":"BILLUND","country":"DENMARK","latitude":55.74027777777778,"longitude":9.151666666666667},{"code":"EKCH","name":"CPH","city":"KASTRUP","airport":"COPENHAGEN","country":"DENMARK","latitude":55.617777777777775,"longitude":12.655833333333334},{"code":"EKEB","name":"EBJ","city":"ESBJERG","airport":"ESBJERG","country":"DENMARK","latitude":55.52583333333333,"longitude":8.553333333333335},{"code":"EKKA","name":"KRP","city":"KARUP","airport":"KARUP","country":"DENMARK","latitude":56.29722222222222,"longitude":9.124444444444444},{"code":"EKOD","name":"ODE","city":"ODENSE","airport":"ODENSE","country":"DENMARK","latitude":55.476111111111116,"longitude":10.329166666666666},{"code":"EKRK","name":"RKE","city":"ROSKILDE","airport":"COPENHAGEN","country":"DENMARK","latitude":55.58555555555556,"longitude":12.131388888888889},{"code":"EKRN","name":"RNN","city":"BORNHOLM RONNE","airport":"RONNE","country":"DENMARK","latitude":55.06305555555555,"longitude":14.759444444444444},{"code":"EKSB","name":"SGD","city":"SONDERBORG","airport":"SOENDERBORG","country":"DENMARK","latitude":54.96416666666667,"longitude":9.791666666666666},{"code":"EKSP","name":"SKS","city":"SKRYDSTRUP","airport":"SKRYDSTRUP","country":"DENMARK","latitude":55.22527777777778,"longitude":9.26388888888889},{"code":"EKTS","name":"TED","city":"THISTED","airport":"THISTED","country":"DENMARK","latitude":57.06861111111112,"longitude":8.705},{"code":"EKVG","name":"FAE","city":"VAGAR","airport":"VAGAR","country":"FAROE ISL.","latitude":62.06361111111111,"longitude":-7.276944444444444},{"code":"EKVJ","name":"STA","city":"STAUNING","airport":"STAUNING","country":"DENMARK","latitude":55.99,"longitude":8.35388888888889},{"code":"EKYT","name":"AAL","city":"AALBORG","airport":"AALBORG","country":"DENMARK","latitude":57.09277777777778,"longitude":9.84888888888889},{"code":"ELLX","name":"LUX","city":"FINDEL INTERNATIONAL AIRPORT","airport":"LUXEMBURG","country":"LUXEMBURG","latitude":49.62638888888889,"longitude":6.211388888888889},{"code":"ENAL","name":"AES","city":"VIGRA","airport":"ALESUND","country":"NORWAY","latitude":62.56027777777778,"longitude":6.109999999999999},{"code":"ENAN","name":"ANX","city":"ANDOYA","airport":"ANDOYA","country":"NORWAY","latitude":69.2925,"longitude":16.144166666666667},{"code":"ENAT","name":"ALF","city":"ALTA","airport":"ALTA","country":"NORWAY","latitude":69.97694444444444,"longitude":23.366111111111113},{"code":"ENBN","name":"BNN","city":"BRONNOY","airport":"BRONNOYSUND","country":"NORWAY","latitude":65.45916666666668,"longitude":12.21361111111111},{"code":"ENBO","name":"BOO","city":"BODO","airport":"BODOE","country":"NORWAY","latitude":67.26888888888888,"longitude":14.363333333333333},{"code":"ENBR","name":"BGO","city":"BERGEN FLESLAND","airport":"BERGEN","country":"NORWAY","latitude":60.29333333333333,"longitude":5.218055555555556},{"code":"ENBS","name":"BJF","city":"BATSFJORD","airport":"BATSFJORD","country":"NORWAY","latitude":70.6,"longitude":29.6925},{"code":"ENCN","name":"KRS","city":"KRISTIANSAND KJEVIK","airport":"KRISTIANSAND","country":"NORWAY","latitude":58.20416666666667,"longitude":8.085277777777778},{"code":"ENDU","name":"BDU","city":"BARDUFOSS","airport":"BARDUFOSS","country":"NORWAY","latitude":69.05555555555556,"longitude":18.540277777777778},{"code":"ENEV","name":"EVE","city":"EVENES","airport":"EVENES","country":"NORWAY","latitude":68.49111111111111,"longitude":16.678055555555556},{"code":"ENFB","name":"FBU","city":"OSLO FORNEBU","airport":"OSLO","country":"NORWAY","latitude":59.89555555555555,"longitude":10.616944444444444},{"code":"ENFG","name":"VDB","city":"FAGERNES LEIRIN","airport":"FAGERNES","country":"NORWAY","latitude":61.01111111111111,"longitude":9.293055555555556},{"code":"ENFL","name":"FRO","city":"FLORO","airport":"FLORO","country":"NORWAY","latitude":61.58388888888889,"longitude":5.025},{"code":"ENGM","name":"OSL","city":"OSLO GARDERMOEN","airport":"OSLO","country":"NORWAY","latitude":60.193888888888885,"longitude":11.100277777777777},{"code":"ENHA","name":"HMR","city":"STAFSBERG","airport":"HAMAR","country":"NORWAY","latitude":60.818333333333335,"longitude":11.067222222222222},{"code":"ENHD","name":"HAU","city":"HAUGESUND KARMOY","airport":"HAUGESUND","country":"NORWAY","latitude":59.345,"longitude":5.208333333333334},{"code":"ENHK","name":"HAA","city":"HASVIK","airport":"HASVIK","country":"NORWAY","latitude":70.48666666666666,"longitude":22.139722222222222},{"code":"ENKB","name":"KSU","city":"KRISTIANSUND KVERNBERGET","airport":"KRISTIANSUND","country":"NORWAY","latitude":63.111666666666665,"longitude":7.8244444444444445},{"code":"ENKR","name":"KKN","city":"KIRKENES HOYBUKTMOEN","airport":"KIRKENES","country":"NORWAY","latitude":69.72500000000001,"longitude":29.8875},{"code":"ENLI","name":"FAN","city":"LISTA","airport":"LISTA","country":"NORWAY","latitude":58.10027777777778,"longitude":6.625000000000001},{"code":"ENML","name":"MOL","city":"ARO","airport":"MOLDE","country":"NORWAY","latitude":62.74611111111111,"longitude":7.2725},{"code":"ENMS","name":"MJF","city":"KJAERSTAD","airport":"MOSJOEN","country":"NORWAY","latitude":65.78388888888888,"longitude":13.214722222222221},{"code":"ENNA","name":"LKL","city":"BANAK","airport":"BANAK","country":"NORWAY","latitude":70.06861111111111,"longitude":24.973333333333333},{"code":"ENOL","name":"OLA","city":"ORLAND","airport":"ORLAND","country":"NORWAY","latitude":63.69888888888889,"longitude":9.60388888888889},{"code":"ENRO","name":"RRS","city":"ROEROS","airport":"ROROS","country":"NORWAY","latitude":62.57833333333333,"longitude":11.342222222222222},{"code":"ENSB","name":"LYR","city":"SVALBARD LONGYEAR","airport":"SVALBARD","country":"NORWAY","latitude":78.2461111111111,"longitude":15.465555555555556},{"code":"ENSG","name":"SOG","city":"SOGNDAL HAUKASEN","airport":"SOGNDAL","country":"NORWAY","latitude":61.15611111111111,"longitude":7.136388888888889},{"code":"ENSN","name":"SKE","city":"SKIEN GEITERYGGEN","airport":"SKIEN","country":"NORWAY","latitude":59.184999999999995,"longitude":9.566944444444443},{"code":"ENSO","name":"SRP","city":"SOERSTOKKEN","airport":"STORD","country":"NORWAY","latitude":59.791666666666664,"longitude":5.340833333333333},{"code":"ENSR","name":"SOJ","city":"SORKJOSEN","airport":"SORKJOSEN","country":"NORWAY","latitude":69.78694444444444,"longitude":20.959444444444443},{"code":"ENST","name":"SSJ","city":"STOKKA","airport":"SANDNESSJOEN","country":"NORWAY","latitude":65.95666666666666,"longitude":12.46888888888889},{"code":"ENTC","name":"TOS","city":"TROMSO","airport":"TROMSO","country":"NORWAY","latitude":69.68333333333334,"longitude":18.91888888888889},{"code":"ENTO","name":"TRF","city":"TORP","airport":"TORP","country":"NORWAY","latitude":59.18666666666666,"longitude":10.258611111111112},{"code":"ENVA","name":"TRD","city":"TRONDHEIM VAERNES","airport":"TRONDHEIM","country":"NORWAY","latitude":63.4575,"longitude":10.939722222222223},{"code":"ENZV","name":"SVG","city":"STAVANGER SOLA","airport":"STAVANGER","country":"NORWAY","latitude":58.876666666666665,"longitude":5.637777777777777},{"code":"EPGD","name":"GDN","city":"REBIECHOWO","airport":"GDANSK","country":"POLAND","latitude":54.3775,"longitude":18.46611111111111},{"code":"EPKK","name":"KRK","city":"BALICE JP II INTERNATIONAL AIRPORT","airport":"KRAKOW","country":"POLAND","latitude":50.0775,"longitude":19.784722222222225},{"code":"EPKT","name":"KTW","city":"PYRZOWICE","airport":"KATOWICE","country":"POLAND","latitude":50.47416666666667,"longitude":19.08},{"code":"EPPO","name":"POZ","city":"LAWICA","airport":"POZNAN","country":"POLAND","latitude":52.42111111111111,"longitude":16.82638888888889},{"code":"EPRZ","name":"RZE","city":"JASIONKA","airport":"RZESZOW","country":"POLAND","latitude":50.11,"longitude":22.01888888888889},{"code":"EPSC","name":"SZZ","city":"GOLENIOW","airport":"SZCZECHIN","country":"POLAND","latitude":53.584722222222226,"longitude":14.901944444444444},{"code":"EPSK","name":"OSP","city":"REDZIKOWO","airport":"SLUPSK","country":"POLAND","latitude":54.47888888888889,"longitude":17.1075},{"code":"EPWA","name":"WAW","city":"OKECIE","airport":"WARSAW","country":"POLAND","latitude":52.16555555555556,"longitude":20.966944444444444},{"code":"EPWR","name":"WRO","city":"STRACHOWICE","airport":"WROCLAW","country":"POLAND","latitude":51.1025,"longitude":16.885833333333334},{"code":"EPZG","name":"IEG","city":"BABIMOST","airport":"ZIELONA GORA","country":"POLAND","latitude":52.13861111111111,"longitude":15.79861111111111},{"code":"ESDB","name":"AGH","city":"ANGELHOLM","airport":"ANGELHOLM","country":"SWEDEN","latitude":56.295833333333334,"longitude":12.846944444444444},{"code":"ESDF","name":"RNB","city":"RONNEBY","airport":"RONNEBY","country":"SWEDEN","latitude":56.266666666666666,"longitude":15.265},{"code":"ESGG","name":"GOT","city":"LANDVETTER","airport":"GOTHENBORG","country":"SWEDEN","latitude":57.66277777777778,"longitude":12.279722222222222},{"code":"ESGJ","name":"JKG","city":"JONKOPING","airport":"JOENKOEPING","country":"SWEDEN","latitude":57.7575,"longitude":14.06861111111111},{"code":"ESGL","name":"LDK","city":"LIDKOPING","airport":"LIDKOPING","country":"SWEDEN","latitude":58.46527777777778,"longitude":13.174166666666666},{"code":"ESGP","name":"GSE","city":"SAVE","airport":"GOTHENBORG","country":"SWEDEN","latitude":57.77472222222222,"longitude":11.870277777777778},{"code":"ESGR","name":"KVB","city":"SKOVDE","airport":"SKOVDE","country":"SWEDEN","latitude":58.45638888888889,"longitude":13.9725},{"code":"ESGT","name":"THN","city":"TROLLHATTAN VANERSBORG","airport":"TROLLHATTAN","country":"SWEDEN","latitude":58.31805555555556,"longitude":12.345},{"code":"ESKK","name":"KSK","city":"KARLSKOGA","airport":"KARLSKOGA","country":"SWEDEN","latitude":59.34583333333334,"longitude":14.495833333333332},{"code":"ESKM","name":"MXX","city":"MORA","airport":"MORA","country":"SWEDEN","latitude":60.95777777777778,"longitude":14.511111111111111},{"code":"ESKN","name":"NYO","city":"SKAVSTA","airport":"STOCKHOLM","country":"SWEDEN","latitude":58.78861111111111,"longitude":16.911944444444444},{"code":"ESMK","name":"KID","city":"KRISTIANSTAD","airport":"KRISTIANSTAD","country":"SWEDEN","latitude":55.92166666666667,"longitude":14.085277777777778},{"code":"ESML","name":"JLD","city":"LANDSKRONA","airport":"LANDSKRONA","country":"SWEDEN","latitude":55.94472222222222,"longitude":12.860833333333334},{"code":"ESMO","name":"OSK","city":"OSKARSHAMN","airport":"OSKARSHAMN","country":"SWEDEN","latitude":57.35027777777778,"longitude":16.497777777777777},{"code":"ESMQ","name":"KLR","city":"KALMAR","airport":"KALKMAR","country":"SWEDEN","latitude":56.68527777777778,"longitude":16.2875},{"code":"ESMS","name":"MMX","city":"STURUP","airport":"MALMOE","country":"SWEDEN","latitude":55.53,"longitude":13.37138888888889},{"code":"ESMT","name":"HAD","city":"HALMSTAD","airport":"HALMSTAD","country":"SWEDEN","latitude":56.691111111111105,"longitude":12.82},{"code":"ESMX","name":"VXO","city":"KRONOBERG","airport":"VAXJO","country":"SWEDEN","latitude":56.928888888888885,"longitude":14.727777777777778},{"code":"ESND","name":"EVG","city":"SVEG","airport":"SVEG","country":"SWEDEN","latitude":62.047777777777775,"longitude":14.422777777777776},{"code":"ESNG","name":"GEV","city":"GALLIVARE","airport":"GALLIVARE","country":"SWEDEN","latitude":67.13222222222221,"longitude":20.814444444444444},{"code":"ESNH","name":"HUV","city":"HUDIKSVALL","airport":"HUDIKSVALL","country":"SWEDEN","latitude":61.768055555555556,"longitude":17.080555555555556},{"code":"ESNK","name":"KRF","city":"KRAMFORS SOLLEFTEA","airport":"KRAMFORS","country":"SWEDEN","latitude":63.04833333333333,"longitude":17.76861111111111},{"code":"ESNL","name":"LYC","city":"LYCKSELE","airport":"LYCKSELE","country":"SWEDEN","latitude":64.54805555555555,"longitude":18.71611111111111},{"code":"ESNN","name":"SDL","city":"SUNDSVALL HARNOSAND","airport":"SUNDSVALL","country":"SWEDEN","latitude":62.528055555555554,"longitude":17.44388888888889},{"code":"ESNO","name":"OER","city":"ORNSKOLDSVIK","airport":"ORNSKOLDSVIK","country":"SWEDEN","latitude":63.40833333333333,"longitude":18.990000000000002},{"code":"ESNQ","name":"KRN","city":"KIRUNA","airport":"KIRUNA","country":"SWEDEN","latitude":67.82194444444444,"longitude":20.336666666666666},{"code":"ESNS","name":"SFT","city":"SKELLEFTEA","airport":"SKELLEFTEA","country":"SWEDEN","latitude":64.62472222222222,"longitude":21.076666666666668},{"code":"ESNU","name":"UME","city":"UMEA","airport":"UMEA","country":"SWEDEN","latitude":63.791666666666664,"longitude":20.2825},{"code":"ESNV","name":"VHM","city":"VILHELMINA","airport":"VILHELMINA","country":"SWEDEN","latitude":64.57888888888888,"longitude":16.833333333333332},{"code":"ESNX","name":"AJR","city":"ARVIDSJAUR","airport":"ARVIDSJAUR","country":"SWEDEN","latitude":65.58999999999999,"longitude":19.281666666666666},{"code":"ESOE","name":"ORB","city":"OREBRO","airport":"OREBRO","country":"SWEDEN","latitude":59.22361111111111,"longitude":15.037777777777778},{"code":"ESOW","name":"VST","city":"VASTERAS","airport":"VASTERAS","country":"SWEDEN","latitude":59.589444444444446,"longitude":16.63361111111111},{"code":"ESPA","name":"LLA","city":"KALLAX","airport":"LULEA","country":"SWEDEN","latitude":65.5436111111111,"longitude":22.121944444444445},{"code":"ESPC","name":"OSD","city":"FROSON","airport":"OSTERSUND","country":"SWEDEN","latitude":63.193888888888885,"longitude":14.501944444444444},{"code":"ESSA","name":"ARN","city":"ARLANDA","airport":"STOCKHOLM","country":"SWEDEN","latitude":59.651944444444446,"longitude":17.91861111111111},{"code":"ESSB","name":"BMA","city":"BROMMA","airport":"STOCKHOLM","country":"SWEDEN","latitude":59.35416666666667,"longitude":17.941388888888888},{"code":"ESSD","name":"BLE","city":"BORLANGE","airport":"BORLANGE","country":"SWEDEN","latitude":60.42194444444444,"longitude":15.515},{"code":"ESSF","name":"HLF","city":"HULTSFRED","airport":"HULTSFRED","country":"SWEDEN","latitude":57.525555555555556,"longitude":15.823888888888888},{"code":"ESSK","name":"GVX","city":"GAVLE SANDVIKEN","airport":"GAVLE","country":"SWEDEN","latitude":60.593333333333334,"longitude":16.95138888888889},{"code":"ESSL","name":"LPI","city":"SAAB","airport":"LINKOEPING","country":"SWEDEN","latitude":58.40611111111111,"longitude":15.680277777777777},{"code":"ESSP","name":"NRK","city":"KUNGSANGEN","airport":"NORRKOEPING","country":"SWEDEN","latitude":58.586111111111116,"longitude":16.250555555555554},{"code":"ESSV","name":"VBY","city":"VISBY","airport":"VISBY","country":"SWEDEN","latitude":57.66277777777778,"longitude":18.34611111111111},{"code":"ETAD","name":"SPM","city":"SPANGDAHLEM AB","airport":"SPANGDAHLEM","country":"GERMANY","latitude":49.972500000000004,"longitude":6.6925},{"code":"ETAR","name":"RMS","city":"RAMSTEIN AB","airport":"RAMSTEIN","country":"GERMANY","latitude":49.4375,"longitude":7.601388888888889},{"code":"ETEU","name":"GHF","city":"GIEBELSTADT AAF","airport":"GIEBELSTADT","country":"GERMANY","latitude":49.64805555555556,"longitude":9.966388888888888},{"code":"ETHC","name":"ZCN","city":"CELLE","airport":"CELLE","country":"GERMANY","latitude":52.59111111111111,"longitude":10.021944444444445},{"code":"ETID","name":"ZNF","city":"HANAU AAF","airport":"HANAU","country":"GERMANY","latitude":50.16916666666666,"longitude":8.961388888888887},{"code":"ETIE","name":"QHD","city":"HEIDELBERG AAF","airport":"HEIDELBERG","country":"GERMANY","latitude":49.39333333333333,"longitude":8.651944444444444},{"code":"ETNG","name":"GKE","city":"GEILENKIRCHEN","airport":"GEILENKIRCHEN","country":"GERMANY","latitude":50.96083333333333,"longitude":6.0424999999999995},{"code":"ETNL","name":"RLG","city":"LAAGE","airport":"LAAGE","country":"GERMANY","latitude":53.918055555555554,"longitude":12.279166666666667},{"code":"ETSF","name":"FEL","city":"FURSTENFELDBRUCK","airport":"FUERSTENFELDBRUCK","country":"GERMANY","latitude":48.205555555555556,"longitude":11.266944444444444},{"code":"ETUL","name":"LRC","city":"LAARBRUCH","airport":"LAARBRUCH","country":"GERMANY","latitude":51.60166666666667,"longitude":6.1425},{"code":"ETUO","name":"GUT","city":"GUTERSLOH","airport":"GUETERSLOH","country":"GERMANY","latitude":51.922777777777775,"longitude":8.306111111111111},{"code":"ETUR","name":"BGN","city":"BRUGGEN","airport":"BRUEGGEN","country":"GERMANY","latitude":51.19972222222222,"longitude":6.131944444444444},{"code":"FAAB","name":"ALJ","city":"ALEXANDER BAY","airport":"ALEXANDER BAY","country":"SOUTH AFRICA","latitude":-28.575,"longitude":16.533333333333335},{"code":"FAAG","name":"AGZ","city":"AGGENEYS","airport":"AGGENEYS","country":"SOUTH AFRICA","latitude":-29.281666666666666,"longitude":18.81361111111111},{"code":"FABE","name":"VIY","city":"BISHO","airport":"BISHO","country":"SOUTH AFRICA","latitude":-32.89694444444444,"longitude":27.278888888888886},{"code":"FABL","name":"BFN","city":"BLOEMFONTEIN","airport":"BLOEMFONTEIN","country":"SOUTH AFRICA","latitude":-29.092499999999998,"longitude":26.302222222222223},{"code":"FACT","name":"CPT","city":"CAPE TOWN INTERNATIONAL","airport":"CAPE TOWN","country":"SOUTH AFRICA","latitude":-33.96472222222223,"longitude":18.601666666666667},{"code":"FADN","name":"DUR","city":"DURBAN INTERNATIONAL","airport":"DURBAN","country":"SOUTH AFRICA","latitude":-29.97,"longitude":30.950277777777778},{"code":"FAEL","name":"ELS","city":"EAST LONDON","airport":"EAST LONDON","country":"SOUTH AFRICA","latitude":-33.035555555555554,"longitude":27.825833333333332},{"code":"FAER","name":"ELL","city":"ELLISRAS","airport":"ELLISRAS","country":"SOUTH AFRICA","latitude":-23.72611111111111,"longitude":27.6875},{"code":"FAGC","name":"GCJ","city":"GRAND CENTRAL","airport":"JOHANNESBURG","country":"SOUTH AFRICA","latitude":-25.98611111111111,"longitude":28.14},{"code":"FAGG","name":"GRJ","city":"GEORGE","airport":"GEORGE","country":"SOUTH AFRICA","latitude":-34.00527777777778,"longitude":22.378888888888888},{"code":"FAGM","name":"HCS","city":"RAND","airport":"JOHANNESBURG","country":"SOUTH AFRICA","latitude":-26.2425,"longitude":28.15111111111111},{"code":"FAHG","name":"GHC","city":"HEIDELBERG","airport":"HEIDELBERG","country":"SOUTH AFRICA","latitude":-26.50611111111111,"longitude":28.39388888888889},{"code":"FAHS","name":"HDS","city":"HOEDSPRUIT AFS","airport":"HOEDSPRUIT","country":"SOUTH AFRICA","latitude":-24.36861111111111,"longitude":31.048611111111114},{"code":"FAJS","name":"JNB","city":"JOHANNESBURG INTERNATIONAL","airport":"JOHANNESBURG","country":"SOUTH AFRICA","latitude":-26.139166666666664,"longitude":28.245833333333334},{"code":"FAKM","name":"KIM","city":"KIMBERLEY","airport":"KIMBERLEY","country":"SOUTH AFRICA","latitude":-28.802777777777777,"longitude":24.765},{"code":"FAKZ","name":"KLZ","city":"KLEINSEE","airport":"KLEINSEE","country":"SOUTH AFRICA","latitude":-29.688333333333333,"longitude":17.093888888888888},{"code":"FALA","name":"HLA","city":"LANSERIA","airport":"JOHANNESBURG","country":"SOUTH AFRICA","latitude":-25.938333333333333,"longitude":27.926111111111112},{"code":"FALT","name":"LCD","city":"LOUIS TRICHARDT AFB","airport":"LOUIS TRICHARDT","country":"SOUTH AFRICA","latitude":-23.15972222222222,"longitude":29.69638888888889},{"code":"FALY","name":"LAY","city":"LADYSMITH","airport":"LADYSMITH","country":"SOUTH AFRICA","latitude":-28.581666666666667,"longitude":29.749722222222225},{"code":"FAMG","name":"MGH","city":"MARGATE","airport":"MARGATE","country":"SOUTH AFRICA","latitude":-30.857222222222223,"longitude":30.342777777777776},{"code":"FAMK","name":"MFK","city":"MAFIKENG NORTH","airport":"MAFIKENG","country":"SOUTH AFRICA","latitude":-25.752777777777776,"longitude":25.611944444444447},{"code":"FAMM","name":"MBO","city":"MAFIKENG","airport":"MMABATHO","country":"SOUTH AFRICA","latitude":-25.798333333333336,"longitude":25.547777777777778},{"code":"FAMS","name":"MEZ","city":"MESSINA","airport":"MESSINA","country":"SOUTH AFRICA","latitude":-22.355833333333333,"longitude":29.98638888888889},{"code":"FANC","name":"NCS","city":"NEWCASTLE","airport":"NEWCASTLE","country":"SOUTH AFRICA","latitude":-27.770555555555553,"longitude":29.976666666666667},{"code":"FANS","name":"NLP","city":"NELSPRUIT","airport":"NELSPRUIT","country":"SOUTH AFRICA","latitude":-25.500555555555554,"longitude":30.91333333333333},{"code":"FAOH","name":"DUH","city":"OUDTSHOORN","airport":"OUDTSHOORN","country":"SOUTH AFRICA","latitude":-33.606944444444444,"longitude":22.18888888888889},{"code":"FAPE","name":"PLZ","city":"PORT ELIZABETH","airport":"PORT ELIZABETH","country":"SOUTH AFRICA","latitude":-33.984722222222224,"longitude":25.61722222222222},{"code":"FAPH","name":"PHW","city":"PHALABORWA","airport":"PHALABORWA","country":"SOUTH AFRICA","latitude":-23.936944444444446,"longitude":31.155277777777776},{"code":"FAPI","name":"PTG","city":"PIETERSBURG MUNI","airport":"PIETERSBURG","country":"SOUTH AFRICA","latitude":-23.925833333333333,"longitude":29.484166666666667},{"code":"FAPM","name":"PZB","city":"PIETERMARITZBURG","airport":"PIETERMARITZBURG","country":"SOUTH AFRICA","latitude":-29.648888888888887,"longitude":30.398611111111112},{"code":"FAPN","name":"NTY","city":"PILANESBERG","airport":"PILANESBERG","country":"SOUTH AFRICA","latitude":-25.33361111111111,"longitude":27.173333333333336},{"code":"FAQT","name":"UTW","city":"QUEENSTOWN","airport":"QUEENSTOWN","country":"SOUTH AFRICA","latitude":-31.92,"longitude":26.881944444444446},{"code":"FARB","name":"RCB","city":"RICHARDS BAY","airport":"RICHARD'S BAY","country":"SOUTH AFRICA","latitude":-28.740833333333335,"longitude":32.091944444444444},{"code":"FASB","name":"SBU","city":"SPRINGBOK","airport":"SPRINGBOK","country":"SOUTH AFRICA","latitude":-29.689166666666665,"longitude":17.939444444444444},{"code":"FASS","name":"SIS","city":"SISHEN","airport":"SISHEN","country":"SOUTH AFRICA","latitude":-27.648333333333333,"longitude":22.999166666666667},{"code":"FASZ","name":"SZK","city":"SKUKUZA","airport":"SKUKUZA","country":"SOUTH AFRICA","latitude":-24.960833333333333,"longitude":31.58861111111111},{"code":"FATH","name":"THY","city":"P R MPHEPHU","airport":"THOHOYANDOU","country":"SOUTH AFRICA","latitude":-23.078611111111112,"longitude":30.383333333333333},{"code":"FATN","name":"TCU","city":"THABA NCHU","airport":"THABA NCHU","country":"BOPHUTHATSWANA","latitude":-29.319166666666668,"longitude":26.823333333333334},{"code":"FATZ","name":"LTA","city":"TZANEEN","airport":"TZANEEN","country":"SOUTH AFRICA","latitude":-23.824166666666667,"longitude":30.329166666666666},{"code":"FAUL","name":"ULD","city":"PRINCE MANGOSUTHU BUTHELEZI","airport":"ULUNDI","country":"SOUTH AFRICA","latitude":-28.320555555555554,"longitude":31.41638888888889},{"code":"FAUP","name":"UTN","city":"UPINGTON","airport":"UPINGTON","country":"SOUTH AFRICA","latitude":-28.40083333333333,"longitude":21.260555555555555},{"code":"FAUT","name":"UTT","city":"UMTATA","airport":"UMTATA","country":"SOUTH AFRICA","latitude":-31.547777777777778,"longitude":28.674166666666668},{"code":"FAVB","name":"VRU","city":"VRYBURG","airport":"VRYBURG","country":"SOUTH AFRICA","latitude":-26.98222222222222,"longitude":24.72861111111111},{"code":"FAVG","name":"VIR","city":"VIRGINIA","airport":"DURBAN","country":"SOUTH AFRICA","latitude":-29.770555555555553,"longitude":31.058333333333334},{"code":"FAVY","name":"VYD","city":"VRYHEID","airport":"VRYHEID","country":"SOUTH AFRICA","latitude":-27.78666666666667,"longitude":30.79527777777778},{"code":"FAWB","name":"PRY","city":"WONDERBOOM","airport":"PRETORIA","country":"SOUTH AFRICA","latitude":-25.65361111111111,"longitude":28.224166666666665},{"code":"FAWM","name":"WEL","city":"WELKOM","airport":"WELKOM","country":"SOUTH AFRICA","latitude":-27.997777777777777,"longitude":26.669444444444444},{"code":"FBFT","name":"FRW","city":"FRANCISTOWN","airport":"FRANCISTOWN","country":"BOTSWANA","latitude":-21.159444444444443,"longitude":27.474444444444444},{"code":"FBJW","name":"JWA","city":"JWANENG","airport":"JWANENG","country":"BOTSWANA","latitude":-24.602222222222224,"longitude":24.690833333333334},{"code":"FBKE","name":"BBK","city":"KASANE","airport":"KASANE","country":"BOTSWANA","latitude":-17.83277777777778,"longitude":25.16222222222222},{"code":"FBMN","name":"MUB","city":"MAUN","airport":"MAUN","country":"BOTSWANA","latitude":-19.972499999999997,"longitude":23.430833333333336},{"code":"FBOR","name":"ORP","city":"ORAPA","airport":"ORAPA","country":"BOTSWANA","latitude":-21.26638888888889,"longitude":25.32027777777778},{"code":"FBSK","name":"GBE","city":"SIR SERETSE KHAMA INTERNATIONAL","airport":"GABERONE","country":"BOTSWANA","latitude":-24.555,"longitude":25.918055555555558},{"code":"FBSP","name":"PKW","city":"SELEBI PHIKWE","airport":"SELEBI-PHIKWE","country":"BOTSWANA","latitude":-22.058333333333334,"longitude":27.828611111111112},{"code":"FCBB","name":"BZV","city":"BRAZZAVILLE MAYA MAYA","airport":"BRAZZAVILLE","country":"CONGO","latitude":-4.251666666666667,"longitude":15.252777777777778},{"code":"FCOI","name":"ION","city":"IMPFONDO","airport":"IMPFONDO","country":"CONGO","latitude":1.5894444444444447,"longitude":18.046944444444446},{"code":"FCOM","name":"MKJ","city":"MAKOUA","airport":"MAKOUA","country":"CONGO","latitude":-0.021388888888888888,"longitude":15.575277777777778},{"code":"FCOO","name":"FTX","city":"OWANDO","airport":"OWANDO","country":"CONGO","latitude":-0.5311111111111112,"longitude":15.95},{"code":"FCOU","name":"OUE","city":"OUESSO","airport":"OUESSO","country":"CONGO","latitude":1.6158333333333335,"longitude":16.03777777777778},{"code":"FCPA","name":"KMK","city":"MAKABANA","airport":"MAKABANA","country":"CONGO","latitude":-3.4833333333333334,"longitude":12.616666666666667},{"code":"FCPD","name":"DIS","city":"DOLISIE","airport":"LOUDIMA","country":"CONGO","latitude":-4.207777777777778,"longitude":12.660833333333334},{"code":"FCPP","name":"PNR","city":"POINTE NOIRE","airport":"POINTE-NOIRE","country":"CONGO","latitude":-4.8133333333333335,"longitude":11.885833333333332},{"code":"FDMS","name":"MTS","city":"MATSAPHA","airport":"MANZINI","country":"SWAZILAND","latitude":-26.528888888888886,"longitude":31.3075},{"code":"FEFF","name":"BGF","city":"BANGUI M POKO","airport":"BANGUI","country":"CENTRAL AFRICAN REP.","latitude":4.398333333333333,"longitude":18.51861111111111},{"code":"FEFG","name":"BGU","city":"BANGASSOU","airport":"BANGASSOU","country":"CENTRAL AFRICAN REP.","latitude":4.7844444444444445,"longitude":22.781388888888888},{"code":"FEFI","name":"IRO","city":"BIRAO","airport":"BIRAO","country":"CENTRAL AFRICAN REP.","latitude":10.23611111111111,"longitude":22.71722222222222},{"code":"FEFM","name":"BBY","city":"BAMBARI","airport":"BAMBARI","country":"CENTRAL AFRICAN REP.","latitude":5.8469444444444445,"longitude":20.649444444444445},{"code":"FEFN","name":"NDL","city":"NDELE","airport":"N'DELE","country":"CENTRAL AFRICAN REP.","latitude":8.426666666666666,"longitude":20.634999999999998},{"code":"FEFO","name":"BOP","city":"BOUAR","airport":"BOUAR","country":"CENTRAL AFRICAN REP.","latitude":5.958055555555556,"longitude":15.6375},{"code":"FEFR","name":"BIV","city":"BRIA","airport":"BRIA","country":"CENTRAL AFRICAN REP.","latitude":6.5280555555555555,"longitude":21.98888888888889},{"code":"FEFT","name":"BBT","city":"BERBERATI","airport":"BERBERATI","country":"CENTRAL AFRICAN REP.","latitude":4.221388888888889,"longitude":15.786111111111111},{"code":"FEFY","name":"AIG","city":"YALINGA","airport":"YALINGA","country":"CENTRAL AFRICAN REP.","latitude":45.15416666666667,"longitude":-89.11083333333333},{"code":"FGBT","name":"BSG","city":"BATA","airport":"BATA","country":"EQUATORIAL GUINEA","latitude":1.9052777777777776,"longitude":9.805555555555557},{"code":"FGSL","name":"SSG","city":"MALABO","airport":"MALABO","country":"EQUATORIAL GUINEA","latitude":3.7552777777777777,"longitude":8.70861111111111},{"code":"FIMP","name":"MRU","city":"SIR SEEWOOSAGUR RAMGOOLAM INTERNATIONAL","airport":"PLAISANCE","country":"MAURITIUS","latitude":-20.43,"longitude":57.68333333333333},{"code":"FIMR","name":"RRG","city":"PLAINE CORAIL","airport":"RODRIGUEZ ISLAND","country":"MAURITIUS","latitude":-19.75777777777778,"longitude":63.36194444444445},{"code":"FKKC","name":"TKC","city":"TIKO","airport":"TIKO","country":"CAMEROON","latitude":4.089166666666666,"longitude":9.360277777777778},{"code":"FKKD","name":"DLA","city":"DOUALA","airport":"DOUALA","country":"CAMEROON","latitude":4.005833333333333,"longitude":9.719444444444445},{"code":"FKKI","name":"OUR","city":"BATOURI","airport":"BATOURI","country":"CAMEROON","latitude":4.473055555555556,"longitude":14.36361111111111},{"code":"FKKL","name":"MVR","city":"MAROUA SALAK","airport":"MAROUA","country":"CAMEROON","latitude":10.451388888888888,"longitude":14.257222222222222},{"code":"FKKM","name":"FOM","city":"FOUMBAN NKOUNJA","airport":"FOUMBAN","country":"CAMEROON","latitude":5.636666666666666,"longitude":10.750555555555556},{"code":"FKKN","name":"NGE","city":"NGAOUNDERE","airport":"N'GAOUNDERE","country":"CAMEROON","latitude":7.356944444444444,"longitude":13.559166666666668},{"code":"FKKR","name":"GOU","city":"GAROUA","airport":"GAROUA","country":"CAMEROON","latitude":9.335833333333333,"longitude":13.370000000000001},{"code":"FKKU","name":"BFX","city":"BAFOUSSAM","airport":"BAFOUSSAM","country":"CAMEROON","latitude":5.536944444444444,"longitude":10.354166666666666},{"code":"FKKV","name":"BPC","city":"BAMENDA","airport":"BAMENDA","country":"CAMEROON","latitude":6.039166666666667,"longitude":10.1225},{"code":"FKKY","name":"YAO","city":"YAOUNDE","airport":"YAOUNDE","country":"CAMEROON","latitude":3.835277777777778,"longitude":11.523611111111112},{"code":"FLLI","name":"LVI","city":"LIVINGSTONE","airport":"LIVINGSTONE","country":"ZAMBIA","latitude":-17.821666666666665,"longitude":25.822499999999998},{"code":"FLLS","name":"LUN","city":"LUSAKA INTERNATIONAL","airport":"LUSAKA","country":"ZAMBIA","latitude":-15.330555555555556,"longitude":28.4525},{"code":"FLMF","name":"MFU","city":"MFUWE","airport":"MFUWE","country":"ZAMBIA","latitude":-13.258611111111112,"longitude":31.93638888888889},